StopId,Code,Name,StopType,Zone,Street,Lng,Lat,Routes
33,BX 06,Công Trường Mê Linh,Bến xe,Quận 1,Thi Sách,106.705856,10.77679,01
79,Q1 031,Bến Bạch Đằng,Trụ dừng,Quận 1,Tôn Đức Thắng,106.706359,10.773299,"01, 03, 19, 45, 53, 56, 88, DL01"
76,Q1 020,Cục Hải Quan Thành Phố,Nhà chờ,Quận 1,Hàm Nghi,106.705549,10.770885,"01, 03, 123, 124, 19, 45, 56, 88"
3691,Q1 193,Chợ Cũ,Nhà chờ,Quận 1,Hàm Nghi,106.703108,10.771006,"01, 03, 19, 45, 56, 88"
2028,Q1 194,Trường Cao Thắng,Nhà chờ,Quận 1,Hàm Nghi,106.701853,10.771043,"01, 03, 102, 19, 20, 34, 38, 39, 45, 56, 75, 88, D4"
4223,Q1 102,Trạm Trung chuyển trên đường Hàm Nghi,Nhà chờ,Quận 1,Hàm Nghi,106.699514,10.771043,"01, 102, 44, 65"
120,Q1 124,Trường Ernst Thalmann,Nhà chờ,Quận 1,Trần Hưng Đạo,106.695923,10.768772,"01, 139, 28, 45, 69"
121,Q1 125,KTX Trần Hưng Đạo,Nhà chờ,Quận 1,Trần Hưng Đạo,106.694695,10.767363,"01, 139, 152, 45, 56"
122,Q1 126,Rạp Hưng Đạo,Nhà chờ,Quận 1,Trần Hưng Đạo,106.693375,10.765832,"01, 139, 152, 45, 56"
123,Q1 127,Bệnh viện Răng Hàm Mặt,Nhà chờ,Quận 1,Trần Hưng Đạo,106.691696,10.763918,"01, 139, 152"
124,Q1 128,Trần Đình Xu,Trụ dừng,Quận 1,Trần Hưng Đạo,106.690247,10.762262,"01, 139, 152"
125,Q1 129,Tổng Cty Samco,Nhà chờ,Quận 1,Trần Hưng Đạo,106.687798,10.759409,"01, 139, 152"
126,Q1 130,Chợ Nanci,Trụ dừng,Quận 1,Trần Hưng Đạo,106.686035,10.757467,"01, 139, 152"
127,Q5 083,Nguyễn Biểu,Trụ dừng,Quận 5,Trần Hưng Đạo,106.68283,10.755887,01
128,Q5 084,Trường Cao đẳng Kinh tế Đối ngoại,Nhà chờ,Quận 5,Trần Hưng Đạo,106.681833,10.755623,01
129,Q5 085,Trần Bình Trọng,Trụ dừng,Quận 5,Trần Hưng Đạo,106.679794,10.755064,01
130,Q5 086,Bệnh viện Chấn thương Chỉnh hình,Nhà chờ,Quận 5,Trần Hưng Đạo,106.677847,10.754537,01
131,Q5 087,Rạp Đồng Tháp,Trụ dừng,Quận 5,Trần Hưng Đạo,106.675825,10.753984,01
134,Q5 088,Rạp Đống Đa,Trụ dừng,Quận 5,Trần Hưng Đạo,106.674237,10.753573,01
132,Q5 089,Đồng Khánh,Trụ dừng,Quận 5,Trần Hưng Đạo,106.67149,10.752983,01
14,Q5 099,Nhà Văn hóa Quận 5,Trụ dừng,Quận 5,Trần Phú,106.668588,10.753025,"01, 59"
136,Q5 090,Ngô Quyền,Biển treo,Quận 5,Trần Hưng Đạo,106.666174,10.752477,01
133,Q5 091,Tản Đà,Trụ dừng,Quận 5,Trần Hưng Đạo,106.663706,10.752292,01
135,Q5 092,Triệu Quang Phục,Trụ dừng,Quận 5,Trần Hưng Đạo,106.660536,10.75206,01
137,Q5 014,Bưu điện Quận 5,Ô sơn,Quận 5,Châu Văn Liêm,106.658894,10.751381,"01, 07, 08, 45, 56, 62"
138,Q5 015,Hải Thượng Lãn Ông,Trụ dừng,Quận 5,Hải Thượng Lãn Ông,106.658358,10.750948,"01, 07, 25, 39, 47, 56"
139,Q5 102,Chợ Kim Biên,Trụ dừng,Quận 5,Trang Tử,106.655086,10.751128,"01, 07, 25, 39, 47, 56"
8,BX14,Bến xe Chợ Lớn,Bến xe,Quận 5,Lê Quang Sung,106.6525650024414,10.751253128051758,"01, 05, 06, 07, 09, 150, 23, 47, 56, 62-1, 62-10, 62-7, 62-8, 81, 94"
1,Q6 095,Chu Văn An,Trụ dừng,Quận 6,Tháp Mười,106.652554,10.750232,"01, 07, 10, 150, 25, 56"
2,Q5 016,Chợ Kim Biên,Trụ dừng,Quận 5,Hải Thượng Lãn Ông,106.655075,10.750732,"01, 07, 25, 39, 47, 56"
3,Q5 011,Bưu điện Quận 5,Ô sơn,Quận 5,Châu Văn Liêm,106.659203,10.751368,"01, 07, 08, 45, 56, 62"
5,Q5 012,Rạp Đại Quang,Nhà chờ,Quận 5,Châu Văn Liêm,106.658937,10.752566,"01, 07, 08, 10, 45, 56, 62"
4,Q5 055,Lương Nhữ Học,Trụ dừng,Quận 5,Nguyễn Trãi,106.660418,10.752962,"01, 91"
7,Q5 056,Triệu Quang Phục,Trụ dừng,Quận 5,Nguyễn Trãi,106.662081,10.753088,"01, 91"
9,Q5 057,Đại học Sư phạm Thể dục thể thao,Nhà chờ,Quận 5,Nguyễn Trãi,106.663486,10.753341,"01, 91"
12,Q5 058,Siêu thị Điện máy Chợ Lớn,Trụ dừng,Quận 5,Nguyễn Trãi,106.664913,10.753626,"01, 91"
6,Q5 059,Ngô Quyền,Trụ dừng,Quận 5,Nguyễn Trãi,106.666882,10.754,"01, 91"
10,Q5 060,Chung cư Nguyễn Trãi,Trụ dừng,Quận 5,Nguyễn Trãi,106.668572,10.754337,"01, 91"
11,Q5 072,Siêu thị Điện máy,Trụ dừng,Quận 5,Nguyễn Tri Phương,106.669418,10.754023,"01, 59"
16,Q5 093,Đồng Khánh,Trụ dừng,Quận 5,Trần Hưng Đạo,106.670412,10.752677,01
17,Q5 094,An Bình,Trụ dừng,Quận 5,Trần Hưng Đạo,106.672837,10.752977,01
13,Q5 095,Rạp Đồng Tháp,Trụ dừng,Quận 5,Trần Hưng Đạo,106.675937,10.753784,01
15,Q5 096,Bệnh viện Chấn Thương Chỉnh hình,Nhà chờ,Quận 5,Trần Hưng Đạo,106.678271,10.754421,01
19,Q5 097,Trần Bình Trọng,Trụ dừng,Quận 5,Trần Hưng Đạo,106.680041,10.754912,01
20,Q5 098,Nguyễn Biểu,Trụ dừng,Quận 5,Trần Hưng Đạo,106.68437,10.756066,01
18,Q1 131,Chợ Nanci,Trụ dừng,Quận 1,Trần Hưng Đạo,106.685883,10.75699,"01, 139, 152"
22,Q1 132,Tổng Cty Samco,Nhà chờ,Quận 1,Trần Hưng Đạo,106.688254,10.759734,"01, 139, 152"
21,Q1 133,Sở PCCC,Nhà chờ,Quận 1,Trần Hưng Đạo,106.689096,10.760656,"01, 139, 152"
23,Q1 134,Hồ Hảo Hớn,Trụ dừng,Quận 1,Trần Hưng Đạo,106.690636,10.762395,"01, 139, 152"
24,Q1 135,Bệnh Viện Răng Hàm Mặt,Nhà chờ,Quận 1,Trần Hưng Đạo,106.691612,10.763567,"01, 139, 152"
25,Q1 136,Rạp Trần Hưng Đạo,Nhà chờ,Quận 1,Trần Hưng Đạo,106.692722,10.76483,"01, 139, 152, 45, 53, 56"
26,Q1 137,KTX Trần Hưng Đạo,Nhà chờ,Quận 1,Trần Hưng Đạo,106.694824,10.767064,"01, 139, 152, 45, 53, 56, 88"
27,Q1 138,Nguyễn Kim,Nhà chờ,Quận 1,Trần Hưng Đạo,106.695847,10.768327,"01, 152, 31, 38, 45, 53, 56, 75, 88"
7266,Q1 180,Trạm Trung chuyển trên đường Hàm Nghi,Nhà chờ,Quận 1,Hàm Nghi,106.700807,10.770896,"01, 03, 04, 19, 56, 88"
7693,Q1 1950,Nam Kỳ Khởi Nghĩa,Nhà chờ,Quận 1,Hàm Nghi,106.701354,10.770875,"01, 03, 04, 19, 88"
1256,Q1 195,Chợ Cũ,Nhà chờ,Quận 1,Hàm Nghi,106.701998,10.770811,"01, 03, 04, 152, 18, 19, 31, 36, 45, 52, 56, 75, 88, 93"
32,Q1 017,Hồ Tùng Mậu,Nhà chờ,Quận 1,Hàm Nghi,106.704074,10.770722,"01, 03, 19, 20, 45, 56, 75, 88, DL01"
31,Q1 024,Bến Bạch Đằng,Nhà chờ,Quận 1,Tôn Đức Thắng,106.706654,10.774094,"01, 03, 19, 45, 53, 56, 88, DL01, DL02"
34,Q1 057,Công Trường Mê Linh,Nhà chờ,Quận 1,Hai Bà Trưng,106.705822,10.775997,"01, 03, 19, 45"
35,BX 01,Bến xe buýt Sài Gòn,Bến xe,Quận 1,Lê Lai,106.689362,10.767676,"03, 04, 102, 109, 13, 140, 18, 19, 20, 27, 28, 34, 36, 39, 52, 65, 69, 72, 75, 88, 93, D4"
7276,Q1 190,Tôn Thất Tùng,Trụ dừng,Quận 1,Phạm Ngũ Lão,106.690941,10.76767,"03, 04, 102, 109, 140, 18, 19, 20, 28, 34, 36, 39, 46, 52, 65, 69, 72, 75, 88, 93, D4"
7277,Q1 191,Nguyễn Thị Nghĩa,Trụ dừng,Quận 1,Phạm Ngũ Lão,106.693699,10.768788,"03, 04, 102, 109, 140, 18, 19, 20, 28, 34, 36, 39, 46, 52, 65, 69, 72, 93, D4, DL01, DL02"
7278,Q1 192,Trường Emst Thalmann,Nhà chờ,Quận 1,Phạm Ngũ Lão,106.695587,10.769504,"03, 04, 102, 109, 18, 19, 20, 28, 34, 36, 39, 52, 65, 69, 93, D4"
7265,Q1 179,Trạm Trung chuyển trên đường Hàm Nghi,Nhà chờ,Quận 1,Hàm Nghi,106.700259,10.770911,"03, 45, 53"
7588,Q1 200,Giao lộ Hàm Nghi - Tôn Thất Đạm,Nhà chờ,Quận 1,Hàm Nghi,106.703038,10.77078,"03, 19"
42,Q1 058,Nhà Hát Thành Phố,Ô sơn,Quận 1,Hai Bà Trưng,106.703559,10.778031,"03, 19, 45"
44,Q1 059,Bệnh viện Nhi Đồng 2,Nhà chờ,Quận 1,Hai Bà Trưng,106.701536,10.779881,"03, 19, 45"
39,Q1 060,Bưu Điện Thành Phố,Trụ dừng,Quận 1,Hai Bà Trưng,106.700673,10.780645,"03, 19, 45"
41,Q1 061,Sở Công Thương,Nhà chờ,Quận 1,Hai Bà Trưng,106.696526,10.784297,"03, 31"
43,Q1 062,Công viên Lê Văn Tám,Nhà chờ,Quận 1,Hai Bà Trưng,106.692599,10.787427,"03, 31, 36"
46,Q1 063,Nhà thờ Tân Định,Trụ dừng,Quận 1,Hai Bà Trưng,106.690399,10.789215,"03, 31, 36"
47,Q1 064,Chợ Tân Định,Trụ dừng,Quận 1,Hai Bà Trưng,106.688843,10.790456,"03, 31, 36"
45,QPN 012,Cầu Kiệu,Ô sơn,Quận Phú Nhuận,Phan Đình Phùng,106.68481,10.79365,03
49,QPN 013,Chợ Phú Nhuận,Ô sơn,Quận Phú Nhuận,Phan Đình Phùng,106.683018,10.795062,03
48,QPN 014,Trường Cao đẳng Kinh tế Đối ngoại,Ô sơn,Quận Phú Nhuận,Phan Đình Phùng,106.680905,10.79795,03
50,QPN 001,Ngã tư Phú Nhuận,Trụ dừng,Quận Phú Nhuận,Nguyễn Kiệm,106.680138,10.799713,"03, 55"
51,QPN 002,Nhà Truyền Thông,Trụ dừng,Quận Phú Nhuận,Nguyễn Kiệm,106.679245,10.802232,"03, 55"
52,QPN 003 ,Ngã ba Hồ Văn Huê,Trụ dừng,Quận Phú Nhuận,Nguyễn Kiệm,106.678759,10.805259,"03, 55"
53,QPN 004,Coop Mart Nguyễn Kiệm,Trụ dừng,Quận Phú Nhuận,Nguyễn Kiệm,106.678528,10.807077,"03, 55"
54,QPN 005,Chùa Vạn Hạnh,Nhà chờ,Quận Phú Nhuận,Nguyễn Kiệm,106.67856,10.810349,"03, 55"
55,QGV 125,Trường Cao đẳng Hải Quan,Nhà chờ,Quận Gò Vấp,Nguyễn Kiệm,106.678711,10.812475,"03, 55"
56,QGV 040,Cầu vượt Nguyễn Thái Sơn - Nguyễn Kiệm,Trụ dừng,Quận Gò Vấp,Nguyễn Thái Sơn,106.680443,10.816282,"03, 07, 103, 148, 55, 59"
57,QGV 042,Ngã ba Phạm Ngũ Lão,Trụ dừng,Quận Gò Vấp,Nguyễn Thái Sơn,106.683147,10.819712,"03, 07, 103, 148, 55, 59"
60,QGV 187 ,Cầu vượt ngã sáu Gò Vấp,Trụ dừng,Quận Gò Vấp,Phạm Ngũ Lão ,106.681221,10.824607,"03, 07, 103, 148, 55, 59"
58,QGV 104,Cầu vượt ngã sáu Gò Vấp,Trụ dừng,Quận Gò Vấp,Nguyễn Oanh,106.678775,10.828991,"03, 59"
62,QGV 106,Ngã tư Phan Văn Trị,Nhà chờ,Quận Gò Vấp,Nguyễn Oanh,106.676699,10.832547,"03, 59"
67,QGV 107,Cư xá Lam Sơn,Nhà chờ,Quận Gò Vấp,Nguyễn Oanh,106.67561,10.836114,"03, 59"
63,QGV 108,Đài Liệt sĩ,Nhà chờ,Quận Gò Vấp,Nguyễn Oanh,106.67583,10.839297,"03, 59"
72,QGV 109,Ngã tư An Nhơn,Trụ dừng,Quận Gò Vấp,Nguyễn Oanh,106.676833,10.842268,"03, 32, 59"
64,QGV 110,Bến Đò,Trụ dừng,Quận Gò Vấp,Nguyễn Oanh,106.678496,10.84691,"03, 32, 59"
4754,QGV 111,Cầu An Lộc,Trụ dừng,Quận Gò Vấp,Nguyễn Oanh,106.678802,10.849117,"03, 32, 59"
73,Q12 032,Nhà hàng Bến Xưa,Trụ dừng,Quận 12,Hà Huy Giáp,106.679285,10.852642,"03, 32, 59"
213,Q12 033,Ngã tư Ga,Trụ dừng,Quận 12,Hà Huy Giáp,106.679907,10.857331,"03, 32, 59"
68,Q12 034,Đình thần Giao Khẩu,Trụ dừng,Quận 12,Hà Huy Giáp,106.680433,10.865217,"03, 58"
74,Q12 035,Cây xăng Tài Lộc,Trụ dừng,Quận 12,Hà Huy Giáp,106.678319,10.86831,"03, 58"
69,Q12 036,Vườn kiểng Quang Dũng,Trụ dừng,Quận 12,Hà Huy Giáp,106.676978,10.871371,"03, 58"
70,Q12 037,Ga ra Thanh Hậu,Trụ dừng,Quận 12,Hà Huy Giáp,106.677032,10.875454,"03, 58"
71,Q12 038,Chợ Thạnh Xuân,Nhà chờ,Quận 12,Hà Huy Giáp,106.678201,10.878493,"03, 58"
77,Q12 039,Trường Điện lực 2,Trụ dừng,Quận 12,Hà Huy Giáp,106.679188,10.880785,"03, 58"
3204,Q12 040,Trường Nguyễn Văn Thệ,Trụ dừng,Quận 12,Hà Huy Giáp,106.681296,10.884562,"03, 58"
3203,Q12 041,Cây xăng Thanh Bình,Trụ dừng,Quận 12,Hà Huy Giáp,106.68305,10.886253,"03, 58"
3206,Q12 042,Cầu Ông Dung,Trụ dừng,Quận 12,Hà Huy Giáp,106.685185,10.88876,"03, 58"
3259,Q12 043,Cầu Phú Long,Trụ dừng,Quận 12,Hà Huy Giáp,106.687031,10.892079,"03, 58"
3207,Q12 044,Chùa Báo Ấn,Trụ dừng,Quận 12,Hà Huy Giáp,106.688619,10.89486,"03, 58"
3210,Q12 232,Chợ Đường,Ô sơn,Quận 12,Bùi Công Trừng,106.689101,10.897721,"03, 58"
75,BX38,Thạnh Xuân,Bến xe,Quận 12,Thạnh Xuân 52,106.673427,10.89288,03
3255,Q12 235,Chợ Đường,Trụ dừng,Quận 12,Bùi Công Trừng,106.689048,10.897452,"03, 58"
3208,Q12 045,Chùa Báo Ấn,Trụ dừng,Quận 12,Hà Huy Giáp,106.688485,10.89485,"03, 58"
3257,Q12 046,Cầu Phú Long,Trụ dừng,Quận 12,Hà Huy Giáp,106.687229,10.892611,"03, 58"
3205,Q12 0460,Cầu Ông Dung,Trụ dừng,Quận 12,Hà Huy Giáp,106.685105,10.888945,"03, 58"
3261,Q12 047,Cây xăng Thanh Bình,Trụ dừng,Quận 12,Hà Huy Giáp,106.682879,10.886327,"03, 58"
3260,Q12 048,Trường Nguyễn Văn Thệ,Trụ dừng,Quận 12,Hà Huy Giáp,106.680905,10.88423,"03, 58"
3262,Q12 049,Trường Điện Lực 2,Trụ dừng,Quận 12,Hà Huy Giáp,106.679226,10.881117,"03, 58"
3263,Q12 050,Chợ Thạnh Xuân,Trụ dừng,Quận 12,Hà Huy Giáp,106.678265,10.878983,"03, 58"
204,Q12 051,Ga ra Thanh Hậu,Trụ dừng,Quận 12,Hà Huy Giáp,106.67672,10.875074,"03, 58"
205,Q12 052,Vườn kiểng Quang Dũng,Trụ dừng,Quận 12,Hà Huy Giáp,106.676785,10.871977,"03, 58"
206,Q12 053,Cây xăng Tài Lộc,Ô sơn,Quận 12,Hà Huy Giáp,106.678233,10.868015,"03, 58"
207,Q12 054,Đình thần Giao Khẩu,Trụ dừng,Quận 12,Hà Huy Giáp,106.680341,10.864886,"03, 58"
208,Q12 055,Ngã tư Ga,Trụ dừng,Quận 12,Hà Huy Giáp,106.679649,10.857984,"03, 32, 59"
211,Q12 056,Nhà hàng Bến Xưa,Trụ dừng,Quận 12,Hà Huy Giáp,106.679006,10.853474,"03, 32, 59"
209,QGV 112,Cầu An Lộc,Trụ dừng,Quận Gò Vấp,Nguyễn Oanh,106.678539,10.848838,"03, 32, 59"
210,QGV 113,Bến Đò,Trụ dừng,Quận Gò Vấp,Nguyễn Oanh,106.67826,10.847015,"03, 32, 59"
212,QGV 114,Bưu điện An Nhơn,Trụ dừng,Quận Gò Vấp,Nguyễn Oanh,106.677214,10.843975,"03, 32, 59"
214,QGV 115,Ngã tư An Nhơn,Trụ dừng,Quận Gò Vấp,Nguyễn Oanh,106.676313,10.841436,"03, 59"
215,QGV 116,Đài Liệt sĩ,Trụ dừng,Quận Gò Vấp,Nguyễn Oanh,106.675707,10.839518,"03, 59"
216,QGV 117,Trường Vinhempic,Nhà chờ,Quận Gò Vấp,Nguyễn Oanh,106.675395,10.836978,"03, 59"
218,QGV 118,Cư xá Lam Sơn,Nhà chờ,Quận Gò Vấp,Nguyễn Oanh,106.675535,10.834939,"03, 59"
217,QGV 119,Ngã tư Phan Văn Trị,Trụ dừng,Quận Gò Vấp,Nguyễn Oanh,106.676919,10.83163,"03, 59"
220,QGV 120,Cầu vượt ngã sáu Gò Vấp,Trụ dừng,Quận Gò Vấp,Nguyễn Oanh,106.678839,10.828532,"03, 59"
219,QGV 121,Cầu vượt ngã sáu Gò Vấp,Trụ dừng,Quận Gò Vấp,Nguyễn Kiệm,106.678968,10.823738,"03, 07, 103, 148, 55, 59"
221,QGV 123,Bệnh Viện 175,Trụ dừng,Quận Gò Vấp,Nguyễn Kiệm,106.678727,10.820044,"03, 07, 103, 148, 55, 59"
223,QGV 124,Chợ Tân Sơn Nhất,Trụ dừng,Quận Gò Vấp,Nguyễn Kiệm,106.678598,10.816772,"03, 07, 103, 148, 55, 59"
224,QPN 034,Đầu công viên Gia Định,Nhà chờ,Quận Phú Nhuận,Hoàng Minh Giám,106.677681,10.813442,"03, 07, 148, 50, 55, 59"
225,QPN 035,Cuối công viên Gia Định,Nhà chờ,Quận Phú Nhuận,Hoàng Minh Giám,106.674741,10.809906,"03, 07, 148, 50, 55, 59"
226,QPN 053,Đầu Đường Đào Duy Anh,Trụ dừng,Quận Phú Nhuận,Đào Duy Anh,106.674057,10.807978,"03, 07, 55"
228,QPN 054,Cuối Đường Đào Duy Anh,Nhà chờ,Quận Phú Nhuận,Đào Duy Anh,106.677177,10.805891,"03, 07, 55"
230,QPN 023,Ngã ba Đào Duy Anh,Trụ dừng,Quận Phú Nhuận,Hồ Văn Huê,106.677729,10.804858,"03, 07, 55"
227,QPN 024,Tháp Nước,Trụ dừng,Quận Phú Nhuận,Hồ Văn Huê,106.676366,10.802434,"03, 07, 55"
229,QPN 025,Trung tâm hội nghị tiệc cưới White Palace,Trụ dừng,Quận Phú Nhuận,Hồ Văn Huê,106.675025,10.800074,"03, 07, 55"
232,QPN 009,Ngã tư Phú Nhuận,Trụ dừng,Quận Phú Nhuận,Hoàng Văn Thụ,106.679354,10.799088,"03, 08, 104, 55, 60-7, 64"
4755,QPN 057,Trường Cao đẳng Kinh tế Đối ngoại,Ô sơn,Quận Phú Nhuận,Phan Đình Phùng,106.680567,10.798345,03
4756,QPN 058,Chợ Phú Nhuận,Ô sơn,Quận Phú Nhuận,Phan Đình Phùng,106.682605,10.795194,03
4757,QPN 059,Cầu Kiệu,Ô sơn,Quận Phú Nhuận,Phan Đình Phùng,106.685277,10.793081,03
231,Q3 029,Trần Quang Khải,Trụ dừng,Quận 3,Hai Bà Trưng,106.68795,10.790939,03
234,Q3 030,Chợ Tân Định,Trụ dừng,Quận 3,Hai Bà Trưng,106.690445,10.788972,"03, 31, 36"
233,Q3 031,Công viên Lê Văn Tám,Trụ dừng,Quận 3,Hai Bà Trưng,106.692653,10.787174,"03, 18, 31"
235,Q3 032,Trần Cao Vân,Trụ dừng,Quận 3,Hai Bà Trưng,106.696625,10.784023,"03, 18"
236,Q1 065,Lê Duẩn,Nhà chờ,Quận 1,Hai Bà Trưng,106.69902,10.78191,"03, 18"
237,Q1 066,Bệnh viện Nhi Đồng 2,Nhà chờ,Quận 1,Hai Bà Trưng,106.701744,10.779385,"03, 19, 45"
238,Q1 067,Nhà Hát Thành Phố,Trụ dừng,Quận 1,Hai Bà Trưng,106.70351,10.777873,"03, 19, 45"
239,Q1 068,Công Trường Mê Linh,Trụ dừng,Quận 1,Hai Bà Trưng,106.705635,10.775976,"03, 19, 45"
7270,Q1 184,Trạm Trung chuyển trên đường Hàm Nghi,Nhà chờ,Quận 1,Hàm Nghi,106.699948,10.771096,"03, 53, D4"
7269,Q1 183,Trạm Trung chuyển trên đường Hàm Nghi,Nhà chờ,Quận 1,Hàm Nghi,106.699514,10.771117,"03, 19, 56, 88"
7273,Q1 187,Khách sạn New World,Ô sơn,Quận 1,Lê Lai,106.695946,10.770964,"03, 04, 102, 109, 18, 19, 20, 34, 36, 39, 52, 53, 75, 88, 93, D4"
7274,Q1 188,Nguyễn Thị Nghĩa,Trụ dừng,Quận 1,Lê Lai,106.693495,10.769952,"03, 04, 102, 109, 140, 18, 19, 20, 34, 36, 39, 52, 53, 69, 72, 75, 88, 93, D4"
7275,Q1 189,Tôn Thất Tùng,Trụ dừng,Quận 1,Lê Lai,106.690469,10.768761,"03, 04, 102, 109, 140, 18, 19, 20, 34, 36, 39, 52, 53, 69, 72, 75, 88, 93, D4"
4271,Q1 078,"Đền Thờ Ấn Giáo, Pasteur",Nhà chờ,Quận 1,Pasteur,106.70139,10.773595,"04, 109, 152, 18, 31, 36, 52, 93"
2724,Q1 079,Lê Thánh Tôn,Trụ dừng,Quận 1,Pasteur,106.700768,10.775088,"04, 109, 152, 18, 31, 36, 52, 93"
4272,Q1 080,Lý Tự Trọng,Trụ dừng,Quận 1,Pasteur,106.699657,10.777089,"04, 109, 152, 18, 31, 36, 52, 93"
4273,Q1 081,Lê Duẫn,Trụ dừng,Quận 1,Pasteur,106.698333,10.778308,"04, 109, 152, 18, 31, 36, 52, 93"
4274,Q1 082,Nguyễn Thị Minh Khai,Nhà chờ,Quận 1,Pasteur,106.696659,10.779782,"04, 109, 152, 31, 93"
243,Q3 082,Đại học Kiến Trúc,Nhà chờ,Quận 3,Pasteur,106.694579,10.781804,"04, 109, 152, 93"
244,Q3 083,Điện Biên Phủ,Nhà chờ,Quận 3,Pasteur,106.692749,10.783419,"04, 109, 152, 93"
245,Q3 084,Võ Thị Sáu,Trụ dừng,Quận 3,Pasteur,106.691145,10.784924,"04, 109, 152"
246,Q3 101,Nhà thiếu nhi thành phố,Nhà chờ,Quận 3,Võ Thị Sáu,106.689613,10.785583,"04, 109, 152, 30, 91"
247,Q3 048,Viện Pasteur,Nhà chờ,Quận 3,Nam Kỳ Khởi Nghĩa,106.688683,10.785577,"04, 109, 152"
248,Q3 049,Trần Quốc Toản,Trụ dừng,Quận 3,Nam Kỳ Khởi Nghĩa,106.687133,10.787047,"04, 109, 152"
250,Q3 050,Lý Chính Thắng,Trụ dừng,Quận 3,Nam Kỳ Khởi Nghĩa,106.684746,10.789245,"04, 109, 152"
249,Q3 051,Chùa Vĩnh Nghiêm,Trụ dừng,Quận 3,Nam Kỳ Khởi Nghĩa,106.683125,10.790694,"04, 109, 152"
251,QPN 048,Ngã tư Trần Huy Liệu,Trụ dừng,Quận Phú Nhuận,Nguyễn Văn Trỗi,106.679236,10.793555,"04, 109, 152"
252,QPN 049,Trung tâm văn hóa Quận Phú Nhuận,Trụ dừng,Quận Phú Nhuận,Nguyễn Văn Trỗi,106.676093,10.795421,"04, 07, 109, 152"
253,QPN 050,Cổng xe lửa,Trụ dừng,Quận Phú Nhuận,Nguyễn Văn Trỗi,106.673797,10.79677,"04, 07, 109, 152"
254,QPN 051,Bệnh viện Quận Phú Nhuận,Trụ dừng,Quận Phú Nhuận,Nguyễn Văn Trỗi,106.670793,10.798525,"04, 07, 109, 152"
255,QPN 052 ,Cây xăng Quân khu 7,Nhà chờ,Quận Phú Nhuận,Nguyễn Văn Trỗi,106.66891,10.799642,"04, 07, 109, 152"
256,QTB 099,Cổng trước SVĐ Quân Khu 7,Nhà chờ,Quận Tân Bình,Phan Đình Giót,106.66678,10.800848,"04, 07, 08, 104, 109, 152, 60-7, 63-1, 64"
258,QTB 107,Vòng xoay Lăng Cha Cả,Nhà chờ,Quận Tân Bình,Trần Quốc Hoàn,106.662312,10.801365,"04, 08, 103, 104, 109, 148, 152, 50, 59, 60-7, 63-1, 64"
259,QTB 110,Siêu thị Maximark Cộng Hòa,Ô sơn,Quận Tân Bình,Cộng Hòa,106.659168,10.801038,"04, 104, 145, 28, 60-7, 63-1"
260,QTB 111,Nhà hát Quân Đội,Trụ dừng,Quận Tân Bình,Cộng Hòa,106.656754,10.801238,"04, 104, 145, 28, 60-7, 63-1"
261,QTB 112,Ngân hàng Quân đội,Nhà chờ,Quận Tân Bình,Cộng Hòa,106.654817,10.801412,"04, 104, 145, 28, 60-7, 63-1"
262,QTB 113,Công ty Lô Hội,Trụ dừng,Quận Tân Bình,Cộng Hòa,106.651127,10.801728,"04, 104, 145, 28, 60-7, 63-1"
263,QTB 114,Ngã tư Hoàng Hoa Thám,Trụ dừng,Quận Tân Bình,Cộng Hòa,106.646953,10.802102,"04, 104, 145, 28, 60-7, 63-1"
264,QTB 115,Ngã ba Bình Giã,Trụ dừng,Quận Tân Bình,Cộng Hòa,106.644512,10.802276,"04, 104, 145, 28, 60-7, 63-1"
265,QTB 116,ETown,Trụ dừng,Quận Tân Bình,Cộng Hòa,106.640967,10.802571,"04, 104, 145, 28, 60-7, 63-1"
266,QTB 117,Thượng Uyển,Nhà chờ,Quận Tân Bình,Cộng Hòa,106.636192,10.806313,"04, 104, 145, 28, 60-7, 63-1"
268,QTB 075,Mũi tàu Cộng Hòa,Trụ dừng,Quận Tân Bình,Trường Chinh,106.634638,10.808314,"04, 104, 145, 16, 23, 27, 28, 60-7, 62, 63-1, 65"
267,QTB 076,Ngã ba Chế Lan Viên,Nhà chờ,Quận Tân Bình,Trường Chinh,106.633349,10.812204,"04, 104, 145, 16, 23, 27, 28, 60-7, 62, 63-1, 65"
270,QTB 078,UBND Phường 15,Nhà chờ,Quận Tân Bình,Trường Chinh,106.631461,10.818332,"04, 104, 145, 23, 27, 28, 62, 65"
271,QTB 079,Khu Công Nghiệp Tân Bình,Nhà chờ,Quận Tân Bình,Trường Chinh,106.630254,10.822452,"04, 104, 13, 145, 23, 27, 32, 41, 62, 65, 94"
272,Q12 128,Cầu Tham Lương - Siêu thị Thiên Hòa,Nhà chờ,Quận 12,Trường Chinh,106.625828,10.826957,"04, 104, 145, 23, 27, 41, 62, 65"
273,Q12 129,Chùa Vĩnh Phước,Nhà chờ,Quận 12,Trường Chinh,106.624594,10.828627,"04, 104, 13, 145, 27, 41, 65, 94"
275,Q12 132,Chùa Lạc Quang,Nhà chờ,Quận 12,Trường Chinh,106.620614,10.834781,"04, 104, 145, 27, 41, 65"
277,Q12 131,Bitis,Nhà chờ,Quận 12,Trường Chinh,106.618398,10.838222,"04, 104, 145, 27, 41, 65"
1115,Q12 122,Bến xe An Sương,Trụ dừng,Quận 12,Quốc lộ 22,106.613517,10.845803,"04, 104, 122, 13, 145, 24, 27, 33, 60-5, 62-5, 65, 71, 85"
1239,HHM 058,Bến xe An Sương,Trụ dừng,Huyện Hóc Môn,Quốc lộ 22,106.613522,10.845187,"04, 122, 13, 145, 24, 33, 60-5, 62-5, 65, 71, 74, 85, 94"
166,BX41,Bến xe An Sương,Bến xe,Quận 12,Quốc lộ 22,106.61337280273438,10.843737602233888,"04, 104, 122, 151, 27, 33, 41, 60-5, 61-3, 62-5, 65, 71, 74, 85"
167,Q12 135,Bitis,Nhà chờ,Quận 12,Trường Chinh,106.617347,10.838891,"04, 104, 145, 27, 41, 65"
172,Q12 136,Chùa Lạc Quang,Nhà chờ,Quận 12,Trường Chinh,106.620212,10.834497,"04, 104, 145, 27, 41, 65"
168,Q12 137,Chùa Vĩnh Phước,Nhà chờ,Quận 12,Trường Chinh,106.621794,10.83202,"04, 104, 145, 27, 41, 65"
169,Q12 139,Cầu Tham Lương - Siêu thị Thiên Hòa,Nhà chờ,Quận 12,Trường Chinh,106.62586,10.82624,"04, 104, 13, 145, 23, 27, 41, 62, 65, 94"
174,QTP 010,Trạm Dệt Thành Công,Nhà chờ,Quận Tân Phú,Trường Chinh,106.629825,10.822315,"04, 104, 13, 145, 23, 27, 32, 41, 62, 65, 94"
173,QTP 011,Trạm KCN Tân Bình,Nhà chờ,Quận Tân Phú,Trường Chinh,106.630615,10.819386,"04, 104, 145, 23, 27, 28, 62, 65"
176,QTP 012,Ngã 3 Chế Lan Viên,Nhà chờ,Quận Tân Phú,Trường Chinh,106.632377,10.814455,"04, 104, 145, 23, 27, 28, 62, 65"
175,QTP 013,Chế Lan Viên,Nhà chờ,Quận Tân Phú,Trường Chinh,106.632748,10.812878,"04, 104, 145, 16, 23, 27, 28, 62, 63-1, 65"
177,QTP 014,Trạm Đài Liệt Sỹ,Nhà chờ,Quận Tân Phú,Trường Chinh,106.634019,10.808689,"04, 104, 145, 16, 23, 27, 28, 48, 60-7, 62, 63-1, 65"
178,QTB 118,Thượng Uyển,Nhà chờ,Quận Tân Bình,Cộng Hòa,106.636055,10.806144,"04, 104, 145, 28, 60-7, 63-1"
180,QTB 119,Ngã tư Tân Kỳ Tân Quý,Trụ dừng,Quận Tân Bình,Cộng Hòa,106.637887,10.803541,"04, 104, 145, 28, 60-7, 63-1"
181,QTB 120,ETown,Nhà chờ,Quận Tân Bình,Cộng Hòa,106.640253,10.802371,"04, 104, 145, 28, 60-7, 63-1"
179,QTB 121,Ngã ba Bình Giã,Trụ dừng,Quận Tân Bình,Cộng Hòa,106.644292,10.802055,"04, 104, 145, 28, 60-7, 63-1"
183,QTB 122,Công ty Lô Hội,Nhà chờ,Quận Tân Bình,Cộng Hòa,106.650413,10.801544,"04, 104, 145, 28, 60-7, 63-1"
182,QTB 123,Pico Plaza,Nhà chờ,Quận Tân Bình,Cộng Hòa,106.653637,10.801254,"04, 104, 145, 28, 60-7, 63-1"
185,QTB 124,Ngã ba Út tịch,Trụ dừng,Quận Tân Bình,Cộng Hòa,106.656679,10.800985,"04, 104, 145, 28, 60-7, 63-1"
184,QTB 125,Siêu thị Maximart Cộng Hòa,Nhà chờ,Quận Tân Bình,Cộng Hòa,106.658819,10.800833,"04, 104, 145, 28, 60-7, 63-1"
187,QTB 036,Công viên Hoàng Văn Thụ,Nhà chờ,Quận Tân Bình,Hoàng Văn Thụ,106.663578,10.800469,"04, 08, 103, 104, 148, 50, 59, 60-7, 63-1, 64"
186,QTB 037,Bảo Tàng Miền Đông,Nhà chờ,Quận Tân Bình,Hoàng Văn Thụ,106.666372,10.800237,"04, 08, 104, 109, 152, 60-7, 63-1, 64"
188,QPN 043,Cây xăng Quân khu 7,Trụ dừng,Quận Phú Nhuận,Nguyễn Văn Trỗi,106.66847,10.799589,"04, 109, 152"
190,QPN 044,Bệnh viện Quận Phú Nhuận,Trụ dừng,Quận Phú Nhuận,Nguyễn Văn Trỗi,106.670744,10.798282,"04, 109, 152"
191,QPN 045,Cổng Xe lửa,Trụ dừng,Quận Phú Nhuận,Nguyễn Văn Trỗi,106.673609,10.796596,"04, 109, 152"
189,QPN 046,Trung tâm Văn hóa Quận Phú Nhuận,Trụ dừng,Quận Phú Nhuận,Nguyễn Văn Trỗi,106.675894,10.795236,"04, 109, 152"
193,QPN 047,Ngã tư Trần Huy Liệu,Trụ dừng,Quận Phú Nhuận,Nguyễn Văn Trỗi,106.679167,10.793276,"04, 109, 152"
192,Q3 052,Chùa Vĩnh Nghiêm,Trụ dừng,Quận 3,Nam Kỳ Khởi Nghĩa,106.683022,10.790381,"04, 109, 152, 72-1"
196,Q3 053,Trần Quốc Toản,Trụ dừng,Quận 3,Nam Kỳ Khởi Nghĩa,106.686897,10.786831,"04, 109, 152"
194,Q3 054,Viện Pasteur,Nhà chờ,Quận 3,Nam Kỳ Khởi Nghĩa,106.688474,10.785351,"04, 109, 152"
198,Q3 055,Điện Biên Phủ,Nhà chờ,Quận 3,Nam Kỳ Khởi Nghĩa,106.69099,10.783116,"04, 109, 152"
195,Q3 056,Coop Mart Nguyễn Đình Chiểu,Nhà chờ,Quận 3,Nam Kỳ Khởi Nghĩa,106.693152,10.78113,"04, 109, 152, 31, 93"
197,Q3 057,Trường THPT Lê Quý Đôn,Nhà chờ,Quận 3,Nam Kỳ Khởi Nghĩa,106.69452,10.779844,"04, 109, 152, 31, 93"
200,Q1 075,Tòa án Nhân dân Thành Phố,Nhà chờ,Quận 1,Nam Kỳ Khởi Nghĩa,106.698647,10.776052,"04, 109, 152, 18, 31, 36, 52, 93"
199,Q1 076,Chùa Ông,Trụ dừng,Quận 1,Nam Kỳ Khởi Nghĩa,106.699722,10.773957,"04, 109, 152, 18, 31, 36, 44, 52, 93"
201,Q1 077,Trường CĐKT Cao Thắng,Trụ dừng,Quận 1,Nam Kỳ Khởi Nghĩa,106.700851,10.771416,"04, 109, 152, 18, 31, 36, 44, 52, 93"
82,Q1 023,Trạm Trung chuyển trên đường Hàm Nghi,Nhà chờ,Quận 1,Hàm Nghi,106.699326,10.771243,"04, 18, 20"
2393,Q6 096,Tháp Mười,Trụ dừng,Quận 6,Tháp Mười,106.653036,10.750326,"05, 39, 47"
897,Q5 079,Tạ Uyên,Trụ dừng,Quận 5,Tạ Uyên,106.65383,10.754606,"05, 103, 23"
1580,Q5 041,Khách sạn Hoàng Hậu,Biển treo,Quận 5,Nguyễn Chí Thanh,106.655022,10.757026,05
1050,Q5 042,Chợ Thiếc,Trụ dừng,Quận 5,Nguyễn Chí Thanh,106.657616,10.757568,"05, 62"
281,Q5 043,Bệnh viện Chợ Rẫy,Nhà chờ,Quận 5,Nguyễn Chí Thanh,106.660128,10.758079,"05, 45, 62, 94"
282,Q5 044,Lý Thường Kiệt,Trụ dừng,Quận 5,Nguyễn Chí Thanh,106.662006,10.758443,"05, 45"
283,Q5 045,Chung cư 155 Nguyễn Chí Thanh,Nhà chờ,Quận 5,Nguyễn Chí Thanh,106.666056,10.759281,"05, 45"
284,Q5 046,Trường Kinh tế Công nghệ,Nhà chờ,Quận 5,Nguyễn Chí Thanh,106.668019,10.759649,"05, 45"
285,Q10 023,Trường Khiếm thị Nguyễn Đình Chiểu,Trụ dừng,Quận 10,Ngô Gia Tự,106.669511,10.760582,"05, 150"
286,Q10 024,Hòa Hảo,Trụ dừng,Quận 10,Ngô Gia Tự,106.671093,10.762933,"05, 150"
288,Q10 020,Chợ Lê Hồng Phong,Nhà chờ,Quận 10,Lê Hồng Phong,106.675444,10.764703,"05, 91"
3164,BX13,Lê Hồng Phong,Bến xe,Quận 5,Lê Hồng Phong,106.676592,10.761252,"05, 53"
287,Q1 088,Phạm Viết Chánh,Nhà chờ,Quận 1,Nguyễn Thị Minh Khai,106.682533,10.766214,"05, 06, 14, 38, 69"
290,Q1 089,Bệnh viện Từ Dũ,Nhà chờ,Quận 1,Nguyễn Thị Minh Khai,106.685024,10.768709,"05, 06, 14, 38, 69"
289,Q1 090,Tôn Thất Tùng,Trụ dừng,Quận 1,Nguyễn Thị Minh Khai,106.687943,10.77185,"05, 06, 14, 38, 69"
292,Q1 091,Sở Y Tế,Nhà chờ,Quận 1,Nguyễn Thị Minh Khai,106.690158,10.774179,"05, 06, 14, 28"
242,Q1 092,Nhà Văn Hóa Lao Động,Nhà chờ,Quận 1,Nguyễn Thị Minh Khai,106.692757,10.777097,"05, 06, 14, 28"
291,Q1 093,Pasteur,Nhà chờ,Quận 1,Nguyễn Thị Minh Khai,106.696434,10.781031,"05, 06, 14, 31"
294,Q1 094,Mạc Đỉnh Chi,Trụ dừng,Quận 1,Nguyễn Thị Minh Khai,106.699503,10.784191,"05, 06, 14, 45, 52"
296,Q1 095,Đinh Tiên Hoàng,Trụ dừng,Quận 1,Nguyễn Thị Minh Khai,106.70137,10.786146,"05, 06, 14, 45, 52"
293,Q1 096,Thảo Cầm Viên,Nhà chờ,Quận 1,Nguyễn Thị Minh Khai,106.70459,10.789598,"05, 06, 14, 19, 52"
295,Q1 097,Cầu Thị Nghè,Nhà chờ,Quận 1,Nguyễn Thị Minh Khai,106.705597,10.790669,"05, 06, 14, 19, 52"
298,QBTH 126,Nhà Thờ Thị Nghè,Nhà chờ,Quận Bình Thạnh,Xô Viết Nghệ Tĩnh,106.708156,10.793418,"05, 06, 14, 19, 52"
297,QBTH 125,Trung tâm Dưỡng Lão,Trụ dừng,Quận Bình Thạnh,Xô Viết Nghệ Tĩnh,106.71057,10.796533,"05, 06, 14, 19, 44, 52"
300,QBTH 124,Trường trung học Gia Định,Trụ dừng,Quận Bình Thạnh,Xô Viết Nghệ Tĩnh,106.711203,10.798999,"05, 06, 14, 19, 44, 52"
299,QBTH 123,Ngã Ba Hàng Xanh,Biển treo,Quận Bình Thạnh,Xô Viết Nghệ Tĩnh,106.711509,10.803262,"05, 08, 14, 146, 19, 24, 43, 44, 45, 60-3, 67, 91, 93"
302,QBTH 122,Đài Liệt sĩ,Biển treo,Quận Bình Thạnh,Xô Viết Nghệ Tĩnh,106.711965,10.808831,"05, 08, 14, 146, 19, 24, 44, 45, 60-3, 67, 91, 93"
301,QBTH 135,Siêu thị Coop Mart,Trụ dừng,Quận Bình Thạnh,Quốc lộ 13,106.71241,10.810791,"05, 08, 14, 146, 19, 24, 43, 45, 60-3, 64, 67, 93"
305,QBTH 138,Cổng ra - Bến xe Miền Đông 1,Trụ dừng,Quận Bình Thạnh,Quốc lộ 13,106.712791,10.813853,"05, 08, 146, 43, 45, 60-3, 64, 67, 91, 93"
304,QTD 198,Trường TH Bình Triệu,Trụ dừng,Quận Thủ Đức,Quốc lộ 13,106.71434,10.829247,"05, 19, 91"
309,QTD 199,Trạm xăng dầu,Trụ dừng,Quận Thủ Đức,Quốc lộ 13,106.714149,10.832655,"05, 19"
306,QTD 200,Cầu Ông Dầu,Trụ dừng,Quận Thủ Đức,Quốc lộ 13,106.714012,10.836135,"05, 19"
310,QTD 201,Đường số 3,Trụ dừng,Quận Thủ Đức,Quốc lộ 13,106.715317,10.838815,"05, 19"
312,QTD 202,Đường số 4,Trụ dừng,Quận Thủ Đức,Quốc lộ 13,106.71714,10.841072,"05, 19"
307,QTD 203,Cân Nhơn Hòa,Trụ dừng,Quận Thủ Đức,Quốc lộ 13,106.718307,10.844687,"05, 19, 91"
308,QTD 204,Ngã 3 Hiệp Bình,Trụ dừng,Quận Thủ Đức,Quốc lộ 13,106.718704,10.848944,"05, 19"
314,QTD 205,Ngã 3 Đường Hiệp Bình,Trụ dừng,Quận Thủ Đức,Quốc lộ 13,106.721222,10.852921,"05, 19, 89"
316,QTD 206,Trạm y tế Hiệp Bình Phước,Trụ dừng,Quận Thủ Đức,Quốc lộ 13,106.722504,10.855787,"05, 19, 89"
311,QTD 207,UBND P.Hiệp Bình Phước,Trụ dừng,Quận Thủ Đức,Quốc lộ 13,106.723663,10.858809,"05, 19, 89"
313,QTD 208,Hồ Bơi,Trụ dừng,Quận Thủ Đức,Quốc lộ 13,106.724564,10.861172,"05, 19, 89"
318,QTD 209,Ngã 4 Bình Phước,Trụ dừng,Quận Thủ Đức,Quốc lộ 13,106.724792,10.863845,"05, 19, 89, 91"
315,QTD 159,Ngã ba mũi tàu đường Gò Dưa ,Trụ dừng,Quận Thủ Đức,Quốc lộ 1,106.727425,10.86689,"05, 19, 29, 33, 60-1, 60-5, 89"
320,QTD 160,Chợ Đầu Mối,Trụ dừng,Quận Thủ Đức,Quốc lộ 1,106.730198,10.86831,"05, 19, 29, 33, 60-1, 60-5, 89"
317,QTD 161,Chợ Tam Bình,Trụ dừng,Quận Thủ Đức,Quốc lộ 1,106.73538,10.87086,"05, 19, 33, 60-1"
322,QTD 162,Hồ Bơi,Trụ dừng,Quận Thủ Đức,Quốc lộ 1,106.739666,10.871766,"05, 19, 33, 60-1"
319,QTD 163,Chợ Tam Hải,Trụ dừng,Quận Thủ Đức,Quốc lộ 1,106.744081,10.872935,"05, 19, 33, 60-1"
321,QTD 164,Cầu vượt Sóng Thần,Nhà chờ,Quận Thủ Đức,Quốc lộ 1,106.747128,10.873905,"05, 19, 33, 60-1"
323,QTD 165,Bến xe Lam Hồng,Trụ dừng,Quận Thủ Đức,Quốc lộ 1,106.75562,10.875706,"05, 19, 33, 60-1"
325,QTD 166,Giày da Thái Bình,Trụ dừng,Quận Thủ Đức,Quốc lộ 1,106.757466,10.875353,"05, 19, 33, 60-1"
324,QTD 168,Cầu vượt Linh Xuân,Trụ dừng,Quận Thủ Đức,Quốc lộ 1,106.762476,10.873973,"05, 19, 33, 60-1"
330,QTD 106,Cầu vượt Linh Xuân,Trụ dừng,Quận Thủ Đức,Quốc lộ 1K,106.765579,10.874434,"05, 61-1"
327,QTD 107,Chợ Linh Xuân,Trụ dừng,Quận Thủ Đức,Quốc lộ 1K,106.766628,10.877382,"05, 61-1"
329,QTD 108,Thánh thất Cao Đài Linh Xuân,Trụ dừng,Quận Thủ Đức,Quốc lộ 1K,106.768066,10.88015,"05, 61-1"
332,QTD 109,Đường số 8,Trụ dừng,Quận Thủ Đức,Quốc lộ 1K,106.769487,10.881807,"05, 61-1"
331,QTD 110,Chùa Từ Quang,Trụ dừng,Quận Thủ Đức,Quốc lộ 1K,106.772568,10.885452,"05, 61-1"
333,QTD 111,Big C,Trụ dừng,Quận Thủ Đức,Quốc lộ 1K,106.774879,10.887267,"05, 61-1"
7208,BXLT Bien Hoa,Bến xe Biên Hòa,Bến xe,Ngoại thành,Quốc lộ 1K,106.808953,10.954127,"05, 60-1, 60-5, 60-7"
334,QTD 112,Big C,Trụ dừng,Quận Thủ Đức,Quốc lộ 1K,106.774583,10.887349,"05, 61-1"
335,QTD 113,Chùa Từ Quang,Trụ dừng,Quận Thủ Đức,Quốc lộ 1K,106.772271,10.885494,"05, 61-1"
336,QTD 114,Đường số 8,Trụ dừng,Quận Thủ Đức,Quốc lộ 1K,106.769396,10.882096,"05, 61-1"
338,QTD 115,Thành thất Cao Đài Linh Xuân,Trụ dừng,Quận Thủ Đức,Quốc lộ 1K,106.767744,10.880158,"05, 61-1"
337,QTD 116,Chợ Linh Xuân,Trụ dừng,Quận Thủ Đức,Quốc lộ 1K,106.766403,10.877611,"05, 61-1"
340,QTD 117,Cầu vượt Linh Xuân,Ô sơn,Quận Thủ Đức,Quốc lộ 1K,106.765366,10.874279,"05, 61-1"
339,QTD 187,Cầu vượt Linh Xuân,Trụ dừng,Quận Thủ Đức,Quốc lộ 1,106.762095,10.874474,"05, 19, 33, 60-1"
341,QTD 188,Giày Thái Bình-Bình Đường,Trụ dừng,Quận Thủ Đức,Quốc lộ 1,106.758689,10.875454,"05, 19, 33, 60-1"
343,QTD 189,Giày Thái Bình,Trụ dừng,Quận Thủ Đức,Quốc lộ 1,106.757305,10.875738,"05, 19, 33"
342,QTD 190,Bến xe Lam Hồng,Trụ dừng,Quận Thủ Đức,Quốc lộ 1,106.755631,10.876049,"05, 19, 33, 60-1"
344,QTD 191,Cầu vượt Sóng Thần,Nhà chờ,Quận Thủ Đức,Quốc lộ 1,106.746528,10.874115,"05, 19, 33, 60-1"
346,QTD 192,Chợ Tam Hải,Ô sơn,Quận Thủ Đức,Quốc lộ 1,106.744291,10.873373,"05, 19, 33, 60-1"
345,QTD 193,Hồ Bơi,Trụ dừng,Quận Thủ Đức,Quốc lộ 1,106.739913,10.872177,"05, 19, 33, 60-1"
348,QTD 194,Chợ Tam Bình,Trụ dừng,Quận Thủ Đức,Quốc lộ 1,106.734474,10.870828,"05, 19, 33, 60-1"
347,QTD 195,Chợ đầu mối nông sản Thủ Đức,Nhà chờ,Quận Thủ Đức,Quốc lộ 1,106.729158,10.86812,"05, 19, 29, 33, 60-1, 60-5, 89"
349,QTD 214,Ngã 4 Bình Phước,Trụ dừng,Quận Thủ Đức,Quốc lộ 13,106.72451,10.863809,"05, 19, 89, 91"
350,QTD 215,Hồ bơi Mèo Mun,Trụ dừng,Quận Thủ Đức,Quốc lộ 13,106.724396,10.861345,"05, 19, 89"
353,QTD 216,UBND P.Hiệp Bình Phước,Trụ dừng,Quận Thủ Đức,Quốc lộ 13,106.723782,10.859791,"05, 19, 89"
351,QTD 217,Trạm y tế P. Hiệp Bình Phước,Trụ dừng,Quận Thủ Đức,Quốc lộ 13,106.722343,10.856024,"05, 19, 89"
355,QTD 218,Ngã 3 Đường Hiệp Bình,Trụ dừng,Quận Thủ Đức,Quốc lộ 13,106.720719,10.852579,"05, 19, 89"
352,QTD 219,Ngã 3 Hiệp Bình,Trụ dừng,Quận Thủ Đức,Quốc lộ 13,106.718346,10.848727,"05, 19"
358,QTD 220,Cân Nhơn Hòa,Trụ dừng,Quận Thủ Đức,Quốc lộ 13,106.718086,10.844473,"05, 19, 91"
354,QTD 221,Đường số 4,Trụ dừng,Quận Thủ Đức,Quốc lộ 13,106.716858,10.84109,"05, 19"
359,QTD 222,Đường số 3,Trụ dừng,Quận Thủ Đức,Quốc lộ 13,106.714915,10.83877,"05, 19"
356,QTD 223,Cầu Ông Dầu,Trụ dừng,Quận Thủ Đức,Quốc lộ 13,106.713745,10.835822,"05, 19"
357,QTD 224,Trạm xăng dầu,Trụ dừng,Quận Thủ Đức,Quốc lộ 13,106.71389,10.83294,"05, 19"
360,QTD 225,UBND P.Hiệp Bình Chánh,Nhà chờ,Quận Thủ Đức,Quốc lộ 13,106.714027,10.830039,"05, 19, 91"
361,QBTH 038,Cổng vào-Bến xe Miền Đông,Nhà chờ,Quận Bình Thạnh,Đinh Bộ Lĩnh,106.711257,10.816661,"05, 08, 14, 146, 19, 43, 60-3, 91, 93"
362,QBTH 039,Ngã Tư Nguyễn Xí,Trụ dừng,Quận Bình Thạnh,Đinh Bộ Lĩnh,106.709223,10.812625,"05, 08, 146, 24, 43, 60-3, 67, 93"
363,QBTH 040,Ngã Tư Chu Văn An,Trụ dừng,Quận Bình Thạnh,Đinh Bộ Lĩnh,106.709143,10.809759,"05, 08, 146, 24, 43, 60-3, 67, 93"
364,QBTH 041,Cầu Đinh Bộ Lĩnh,Trụ dừng,Quận Bình Thạnh,Đinh Bộ Lĩnh,106.709341,10.806908,"05, 08, 146, 24, 43, 60-3, 67, 93"
365,QBTH 042,Trạm xăng dầu,Trụ dừng,Quận Bình Thạnh,Đinh Bộ Lĩnh,106.709395,10.804421,"05, 08, 146, 24, 43, 60-3, 67, 93"
366,QBTH 010,Chợ Hàng Xanh,Trụ dừng,Quận Bình Thạnh,Bạch Đằng,106.710511,10.802793,"05, 08, 104, 146, 24, 43, 55, 60-3, 60-7, 67, 91"
368,QBTH 130,Trường trung học Gia Định,Trụ dừng,Quận Bình Thạnh,Xô Viết Nghệ Tĩnh,106.711037,10.79981,"05, 06, 14, 19, 44, 52"
367,QBTH 129,Trường Tiểu học Hồng Hà,Nhà chờ,Quận Bình Thạnh,Xô Viết Nghệ Tĩnh,106.710591,10.797328,"05, 06, 14, 19, 44, 52"
369,QBTH 128,Ngã ba Nguyễn Cửu Vân,Trụ dừng,Quận Bình Thạnh,Xô Viết Nghệ Tĩnh,106.709443,10.79511,"05, 06, 14, 19, 52"
373,QBTH 127,Nhà thờ Thị Nghè,Trụ dừng,Quận Bình Thạnh,Xô Viết Nghệ Tĩnh,106.708054,10.793661,"05, 06, 14, 19, 52"
370,Q1 098,Thảo Cầm Viên,Nhà chờ,Quận 1,Nguyễn Thị Minh Khai,106.705259,10.790694,"05, 06, 14, 19, 52"
374,Q1 099,Đài truyền hình,Nhà chờ,Quận 1,Nguyễn Thị Minh Khai,106.702011,10.787157,"05, 06, 14, 45, 52"
371,Q1 100,nhà thờ Mạc Ti Nho,Nhà chờ,Quận 1,Nguyễn Thị Minh Khai,106.701294,10.786397,"05, 06, 14, 45, 52"
372,Q1 101,Phùng Khắc Khoan,Trụ dừng,Quận 1,Phùng Khắc Khoan,106.698586,10.784048,"05, 06, 14, 52"
378,Q3 085,Hồ Con Rùa,Trụ dừng,Quận 3,Trần Cao Vân,106.696411,10.783314,"05, 06, 14, 52"
375,Q3 105,Sân Phan Đình Phùng,Nhà chờ,Quận 3,Võ Văn Tần,106.694402,10.781172,"05, 06, 14"
377,Q3 106,Bảo tàng chứng tích chiến tranh,Nhà chờ,Quận 3,Võ Văn Tần,106.69254,10.779143,"05, 06, 14, DL01, DL02"
376,Q3 107,Trần Quốc Thảo,Nhà chờ,Quận 3,Võ Văn Tần,106.691365,10.777889,"05, 06, 14"
379,Q3 108,Đại học Mở thành phố HCM,Trụ dừng,Quận 3,Võ Văn Tần,106.69004,10.776418,"05, 06, 14"
381,Q3 005,Nguyễn Thị Minh Khai,Trụ dừng,Quận 3,Bà Huyện Thanh Quan,106.690186,10.775102,"05, 06, 14"
380,Q3 069,Cách Mạng tháng 8,Trụ dừng,Quận 3,Nguyễn Thị Minh Khai,106.689021,10.77342,"05, 06, 14, 38"
383,Q3 070,Tôn Thất Tùng,Trụ dừng,Quận 3,Nguyễn Thị Minh Khai,106.686634,10.77079,"05, 06, 14, 38"
382,Q3 071,Bệnh viện Từ Dũ,Trụ dừng,Quận 3,Nguyễn Thị Minh Khai,106.684883,10.768946,"05, 06, 14, 38"
89,Q3 072,Trung ương Hội Chữ thập đỏ TP,Nhà chờ,Quận 3,Nguyễn Thị Minh Khai,106.683657,10.767723,"05, 06, 14, 27, 38, 53"
90,Q3 073,Nhà sách Minh Khai,Trụ dừng,Quận 3,Nguyễn Thị Minh Khai,106.68238,10.766395,"05, 06, 14, 27, 38, 53"
385,Q10 079,Công viên Âu Lạc,Nhà chờ,Quận 10,Hùng Vương,106.680443,10.764877,05
384,Q10 080,Ngã tư Trần Bình Trọng,Nhà chờ,Quận 10,Hùng Vương,106.678963,10.763913,"05, 53"
387,Q10 081,Ngã tư Lê Hồng Phong,Ô sơn,Quận 10,Hùng Vương,106.676967,10.762606,05
3180,Q10 082,Ngã tư Trần Nhân Tông,Trụ dừng,Quận 10,Hùng Vương,106.676012,10.761984,"05, 91"
2978,Q10 047,Trường CĐ Sư phạm TW thành phố,Trụ dừng,Quận 10,Nguyễn Chí Thanh,106.670578,10.760277,"05, 45"
389,Q10 048,Nguyễn Tiểu La,Trụ dừng,Quận 10,Nguyễn Chí Thanh,106.667976,10.759739,"05, 45"
392,Q10 049,Ngã tư Ngô Quyền,Trụ dừng,Quận 10,Nguyễn Chí Thanh,106.665171,10.759228,"05, 45"
391,Q10 050,Nhà máy Bia Sài Gòn,Nhà chờ,Quận 10,Nguyễn Chí Thanh,106.66452,10.759078,"05, 45"
393,Q11 021,Bệnh viện Răng Hàm Mặt,Trụ dừng,Quận 11,Nguyễn Chí Thanh,106.660828,10.758364,"05, 45, 62, 94"
1608,Q11 022,Chợ Thiếc,Biển treo,Quận 11,Nguyễn Chí Thanh,106.657387,10.757636,05
1599,Q11 023,Tạ Uyên,Trụ dừng,Quận 11,Nguyễn Chí Thanh,106.65412,10.756951,05
1017,Q5 080,Tạ Uyên,Trụ dừng,Quận 5,Tạ Uyên,106.653696,10.755201,"05, 103, 23"
464,Q5 023,Bến xe Chợ Lớn,Trụ dừng,Quận 5,Hồng Bàng,106.652334,10.753331,"06, 09, 103, 139, 23, 62-1, 62-10, 62-6, 62-7, 63-1, 68, 81"
470,Q5 024,Thuận Kiều Plaza,Nhà chờ,Quận 5,Hồng Bàng,106.656749,10.754111,"06, 139, 150, 63-1, 68"
437,Q5 025,Bệnh viện Chợ Rẫy,Trụ dừng,Quận 5,Hồng Bàng,106.659232,10.754553,"06, 07, 08, 139, 150, 56, 62, 63-1, 68"
439,Q5 026,Đại học Y Dược,Nhà chờ,Quận 5,Hồng Bàng,106.663191,10.75536,"06, 07, 10, 139, 150, 56, 68"
440,Q5 027,Bệnh viện Đại học Y Dược,Nhà chờ,Quận 5,Hồng Bàng,106.664683,10.755671,"06, 07, 139, 150, 56, 68"
465,Q5 006,Bệnh viện Nguyễn Tri Phương,Trụ dừng,Quận 5,An Dương Vương,106.670492,10.756714,"06, 139, 56"
469,Q5 007,Chợ An Đông,Trụ dừng,Quận 5,An Dương Vương,106.672182,10.757057,"06, 139, 56"
466,Q5 008,Huỳnh Mẫn Đạt,Trụ dừng,Quận 5,An Dương Vương,106.676576,10.758374,"06, 139, 38, 45, 56"
472,Q5 009,Chợ Bầu Sen,Ô sơn,Quận 5,An Dương Vương,106.678453,10.759138,"06, 139, 38, 45, 56"
467,Q5 010,Đại học Sài Gòn,Nhà chờ,Quận 5,An Dương Vương,106.682321,10.760672,"06, 139, 38, 45, 56"
474,Q1 141,ĐH Khoa Học Tự Nhiên,Nhà chờ,Quận 1,Nguyễn Văn Cừ,106.683052,10.762292,"06, 38"
471,Q1 142,Trường Lê Hồng Phong,Nhà chờ,Quận 1,Nguyễn Văn Cừ,106.68216,10.764503,"06, 38"
476,QBTH 059,Đại học Hutech,Ô sơn,Quận Bình Thạnh,Điện Biên Phủ,106.714255,10.800827,"06, 104, 150, 43, 52, 55, 60-3, 60-7, 67, 72-1"
473,QBTH 058,Khu Du lịch Văn Thánh,Nhà chờ,Quận Bình Thạnh,Điện Biên Phủ,106.717404,10.799531,"06, 104, 150, 43, 52, 55, 60-3, 60-7, 67"
475,QBTH 057,Cầu Sài Gòn,Trụ dừng,Quận Bình Thạnh,Điện Biên Phủ,106.719496,10.798525,"06, 104, 150, 43, 52, 55, 60-3, 60-7, 67"
477,Q2 071,Cầu Đen,Nhà chờ,Quận 2,Xa Lộ Hà Nội,106.7342,10.799978,"06, 10, 104, 150, 30, 52, 53, 55, 56, 60-7, 67, 72-1"
478,Q2 072,Thảo Điền,Nhà chờ,Quận 2,Xa Lộ Hà Nội,106.738899,10.800838,"06, 104, 150, 30, 52, 55, 56, 60-3, 60-7, 67"
480,Q2 073,Metro Quận 2,Nhà chờ,Quận 2,Xa Lộ Hà Nội,106.742928,10.801584,"06, 104, 150, 30, 52, 55, 56, 60-3, 60-7, 67"
479,Q2 074,Cát Lái,Nhà chờ,Quận 2,Xa Lộ Hà Nội,106.748089,10.802592,"06, 104, 150, 30, 52, 55, 56, 60-3, 60-7, 67"
482,Q9 210,Xi măng hà tiên - trạm thu phí,Nhà chờ,Quận 9,Xa Lộ Hà Nội,106.758394,10.819206,"06, 104, 150, 30, 52, 55, 56, 60-3, 60-7, 67, 99"
481,Q9 211,Ngã 4 Tây Hòa (RMK),Nhà chờ,Quận 9,Xa Lộ Hà Nội,106.760775,10.825972,"06, 104, 150, 30, 52, 55, 56, 60-3, 60-7, 67, 99"
485,Q9 212,Trạm xây dựng,Nhà chờ,Quận 9,Xa Lộ Hà Nội,106.76312,10.829955,"06, 104, 150, 30, 52, 55, 56, 60-3, 60-7, 67"
483,Q9 213,Khu QLGTDT số 2,Nhà chờ,Quận 9,Xa Lộ Hà Nội,106.764778,10.833249,"06, 10, 104, 150, 30, 52, 53, 55, 56, 60-7, 67"
484,QTD 054,Tu viện Quảng Đức,Ô sơn,Quận Thủ Đức,Đặng Văn Bi,106.766719,10.838786,"06, 56"
486,QTD 055,Công ty Sanofi Aventis,Trụ dừng,Quận Thủ Đức,Đặng Văn Bi,106.764175,10.841652,"06, 29, 56"
489,QTD 056,Công ty may Sài Gòn,Trụ dừng,Quận Thủ Đức,Đặng Văn Bi,106.762466,10.843897,"06, 29, 56"
491,QTD 057,Trường mầm non Vành Khuyên,Trụ dừng,Quận Thủ Đức,Đặng Văn Bi,106.760056,10.847888,"06, 29, 56"
488,QTD 058,Làng Thiếu Niên Thủ Đức,Trụ dừng,Quận Thủ Đức,Đặng Văn Bi,106.758781,10.850015,"06, 29, 56"
493,QTD 070,Ngã ba Chương Dương,Trụ dừng,Quận Thủ Đức,Võ Văn Ngân,106.760931,10.850419,"06, 08, 141, 56, 57, 61-1, 89"
490,QTD 071,Cao đẳng xây dựng 2,Nhà chờ,Quận Thủ Đức,Võ Văn Ngân,106.764439,10.85065,"06, 08, 141, 56, 57, 61-1, 89"
492,QTD 072,Siêu thị Nguyễn Kim,Trụ dừng,Quận Thủ Đức,Võ Văn Ngân,106.769112,10.849686,"06, 08, 141, 56, 57, 61-1"
497,QTD 073,Trường ĐHSP Kỹ Thuật,Trụ dừng,Quận Thủ Đức,Võ Văn Ngân,106.771917,10.849597,"06, 08, 141, 56, 57, 61-1, 89"
494,Q9 218,Công an Quận 9,Nhà chờ,Quận 9,Xa Lộ Hà Nội,106.775066,10.849966,"06, 08, 150, 30, 52, 60-3, 60-7, 67, 76"
7159,Q9 281,Trạm Hutech - Khu Công nghệ cao,Nhà chờ,Quận 9,Song hành phải Xa Lộ Hà Nội,106.785382,10.856398,"06, 08, 10, 150, 30, 52, 60-7, 67, 76"
495,Q9 220,Khu Công nghệ cao quận 9,Nhà chờ,Quận 9,Xa Lộ Hà Nội,106.788869,10.858511,"06, 08, 150, 30, 52, 60-3, 60-7, 67, 76"
500,QTD 180,Đại học Nông Lâm,Trụ dừng,Quận Thủ Đức,Quốc lộ 1,106.791101,10.866961,"06, 19, 33, 50, 52, 60-1, 60-2, 93"
394,BX73,Đại học Nông Lâm,Bến xe,Quận Thủ Đức,Quốc lộ 1,106.78744506835938,10.868183135986328,"06, 104, 60-2, 89"
396,QTD 174,ĐH Nông Lâm,Trụ dừng,Quận Thủ Đức,Quốc lộ 1,106.790283,10.866912,"06, 19, 33, 50, 52, 60-1, 60-2, 93"
398,QTD 074,Khu Công nghệ cao Q9,Trụ dừng,Quận Thủ Đức,Xa Lộ Hà Nội,106.791138,10.860218,"06, 08, 150, 30, 52, 60-3, 60-7, 67, 76"
4392,QTD 075,Xa Lộ Hà Nội,Nhà chờ,Quận Thủ Đức,Xa Lộ Hà Nội,106.788633,10.858716,"06, 08, 30, 52, 60-3, 60-7, 67, 76"
401,QTD 076,Công ty Cocacola,Trụ dừng,Quận Thủ Đức,Xa Lộ Hà Nội,106.784964,10.856483,"06, 08, 150, 30, 52, 60-3, 60-7, 67, 76"
400,QTD 065,Trường Đại học Sư phạm Kỹ thuật,Nhà chờ,Quận Thủ Đức,Võ Văn Ngân,106.772105,10.849871,"06, 08, 141, 56, 57, 89"
402,QTD 066,Siêu thị Nguyễn Kim,Trụ dừng,Quận Thủ Đức,Võ Văn Ngân,106.768837,10.849805,"06, 08, 141, 56, 57, 61-1, 89"
403,QTD 067,Nhà thiếu nhi Thủ Đức,Nhà chờ,Quận Thủ Đức,Võ Văn Ngân,106.766794,10.850556,"06, 08, 141, 56, 57, 61-1, 89"
404,QTD 068,Cao đẳng xây dựng 2,Trụ dừng,Quận Thủ Đức,Võ Văn Ngân,106.764101,10.850808,"06, 08, 141, 56, 57, 61-1, 89"
405,QTD 069,Ngã ba Chương Dương,Nhà chờ,Quận Thủ Đức,Võ Văn Ngân,106.760201,10.850645,"06, 08, 141, 56, 57, 61-1, 89"
406,QTD 059,Làng Thiếu Niên Thủ Đức,Trụ dừng,Quận Thủ Đức,Đặng Văn Bi,106.758698,10.849723,"06, 29, 56"
408,QTD 060,Trường THPT Quận Thủ Đức,Trụ dừng,Quận Thủ Đức,Đặng Văn Bi,106.759613,10.848207,"06, 29, 56"
407,QTD 061,Công ty may Sài Gòn,Trụ dừng,Quận Thủ Đức,Đặng Văn Bi,106.762133,10.844107,"06, 29, 56"
411,QTD 062,Công ty Sanofi Aventis,Trụ dừng,Quận Thủ Đức,Đặng Văn Bi,106.764354,10.84132,"06, 29, 56"
409,QTD 063,Tu viện Quảng Đức,Trụ dừng,Quận Thủ Đức,Đặng Văn Bi,106.766338,10.839349,"06, 29, 56"
410,QTD 080,Ngã 4 Bình Thái,Nhà chờ,Quận Thủ Đức,Xa Lộ Hà Nội,106.765244,10.834945,"06, 10, 104, 150, 30, 52, 53, 55, 56, 60-3, 60-7, 67"
413,QTD 081,Công ty truyền tải điện 4,Nhà chờ,Quận Thủ Đức,Xa Lộ Hà Nội,106.763195,10.831214,"06, 104, 150, 30, 52, 55, 56, 60-3, 60-7, 67"
412,QTD 082,Ngã 4 Tây Hòa (RMK),Nhà chờ,Quận Thủ Đức,Xa Lộ Hà Nội,106.759998,10.825366,"06, 104, 150, 30, 52, 55, 56, 60-3, 60-7, 67, 99"
414,QTD 083,Xi măng Hà Tiên,Nhà chờ,Quận Thủ Đức,Xa Lộ Hà Nội,106.758142,10.820576,"06, 104, 150, 30, 52, 55, 56, 60-3, 60-7, 67, 99"
415,Q2 075,Cát Lái,Nhà chờ,Quận 2,Xa Lộ Hà Nội,106.747948,10.802925,"06, 10, 104, 150, 30, 52, 55, 56, 60-3, 60-7, 67"
416,Q2 076,Metro Quận 2,Nhà chờ,Quận 2,Xa Lộ Hà Nội,106.7434,10.802134,"06, 104, 150, 30, 52, 55, 56, 60-3, 60-7, 67"
417,Q2 077,Thảo Điền,Nhà chờ,Quận 2,Xa Lộ Hà Nội,106.738762,10.801309,"06, 104, 150, 30, 52, 55, 56, 60-3, 60-7, 67, 72-1"
418,Q2 078,Cầu Đen,Nhà chờ,Quận 2,Xa Lộ Hà Nội,106.73436,10.800451,"06, 104, 150, 30, 52, 53, 55, 56, 60-3, 60-7, 67, 72-1"
419,QBTH 056,Cầu Sài Gòn,Trụ dừng,Quận Bình Thạnh,Điện Biên Phủ,106.719571,10.798893,"06, 104, 150, 43, 52, 55, 60-3, 60-7, 67"
420,QBTH 055,Khu Du lịch Văn Thánh,Nhà chờ,Quận Bình Thạnh,Điện Biên Phủ,106.717227,10.800274,"06, 10, 104, 150, 43, 44, 52, 55, 60-3, 60-7, 67"
421,QBTH 054,Đại học Hutech,Nhà chờ,Quận Bình Thạnh,Điện Biên Phủ,106.714856,10.801228,"06, 104, 14, 150, 19, 43, 44, 45, 52, 55, 60-3, 60-7, 67, 72-1"
423,QBTH 053,Cây xăng dầu,Trụ dừng,Quận Bình Thạnh,Điện Biên Phủ,106.712834,10.801697,"06, 104, 14, 150, 19, 43, 44, 45, 52, 55, 60-7, 67"
425,Q5 073,Trường THPT Lê Hồng Phong,Nhà chờ,Quận 5,Nguyễn Văn Cừ,106.681946,10.764456,"06, 38"
424,Q5 074,Đại học Khoa học Tự nhiên,Nhà chờ,Quận 5,Nguyễn Văn Cừ,106.682388,10.763354,"06, 38"
426,Q5 001,Đại học Sư Phạm,Nhà chờ,Quận 5,An Dương Vương,106.68267,10.76103,"06, 139, 38, 45, 56"
429,Q5 002,Chợ Bầu Sen,Trụ dừng,Quận 5,An Dương Vương,106.678764,10.759407,"06, 139, 38, 45, 56"
427,Q5 003,Huỳnh Mẫn Đạt,Trụ dừng,Quận 5,An Dương Vương,106.675272,10.757984,"06, 139, 38, 45, 56"
430,Q5 004,Chợ An Đông,Nhà chờ,Quận 5,An Dương Vương,106.673534,10.757536,"06, 139, 56"
428,Q5 005,Bệnh viện Nguyễn Tri Phương,Trụ dừng,Quận 5,An Dương Vương,106.670653,10.756967,"06, 139, 56"
432,Q5 068,Công viên Văn Lang,Trụ dừng,Quận 5,Nguyễn Tri Phương,106.669613,10.757151,"06, 07, 139, 150, 56, 59, 68"
431,Q5 031,Công viên Văn Lang,Nhà chờ,Quận 5,Hùng Vương,106.668566,10.757257,"06, 139, 56, 68, 91"
433,Q5 017,Bệnh viện Phạm Ngọc Thạch,Nhà chờ,Quận 5,Hồng Bàng,106.664511,10.755897,"06, 07, 139, 150, 56, 68, 91"
434,Q5 018,Hùng Vương Plaza,Nhà chờ,Quận 5,Hồng Bàng,106.661072,10.755196,"06, 07, 08, 10, 139, 150, 56, 62, 63-1, 68, 91"
436,Q5 019,Bệnh viện Chợ Rẫy,Trụ dừng,Quận 5,Hồng Bàng,106.659501,10.754875,"06, 07, 08, 139, 150, 56, 62, 63-1, 68, 91"
435,Q5 020,Thuận Kiều Plaza,Nhà chờ,Quận 5,Hồng Bàng,106.657934,10.75458,"06, 139, 150, 63-1, 68, 91"
438,Q5 021,Dương Tử Giang,Nhà chờ,Quận 5,Hồng Bàng,106.65552,10.754158,"06, 139, 150, 63-1, 68, 91"
441,Q5 069,Trường Trần Khai Nguyên,Ô sơn,Quận 5,Nguyễn Tri Phương,106.66928,10.758706,"07, 150, 59"
442,Q10 071,Đại học Kinh tế,Trụ dừng,Quận 10,Nguyễn Tri Phương,106.668564,10.761386,"07, 10, 59"
444,Q10 072,Trường Hoàng Văn Thụ,Nhà chờ,Quận 10,Nguyễn Tri Phương,106.668213,10.763073,"07, 59"
443,Q10 073,Chợ Nhật Tảo,Trụ dừng,Quận 10,Nguyễn Tri Phương,106.667702,10.765397,"07, 59"
446,Q10 074,Học viện Quân y,Trụ dừng,Quận 10,Nguyễn Tri Phương,106.667313,10.767052,"07, 59"
158,Q10 011,Bệnh viện Nhi Đồng 1,Nhà chờ,Quận 10,Đường 3/2,106.670609,10.769518,07
160,Q10 012,Nhà thờ Vinh Sơn,Trụ dừng,Quận 10,Đường 3/2,106.672166,10.770269,07
159,Q10 013,Nhà hát Hòa Bình,Trụ dừng,Quận 10,Đường 3/2,106.674805,10.771855,07
162,Q10 014,Học viện Hành chính Quốc gia,Trụ dừng,Quận 10,Đường 3/2,106.677015,10.77323,07
445,Q10 015,Bệnh viện Bình Dân,Trụ dừng,Quận 10,Đường 3/2,106.67885,10.774421,07
448,Q10 016,Siêu thị Maximark,Nhà chờ,Quận 10,Đường 3/2,106.68099,10.776977,07
7175,Q3 118,Ga Hòa Hưng,Nhà chờ,Quận 3,Nguyễn Thông,106.677884,10.782305,07
447,Q3 033,Nhà thờ Dòng chúa Cứu thế,Trụ dừng,Quận 3,Kỳ Đồng,106.681305,10.780805,07
451,Q3 034,Trần Quốc Thảo,Trụ dừng,Quận 3,Kỳ Đồng,106.683022,10.784504,07
449,Q3 042,Chợ Nguyễn Văn Trỗi,Trụ dừng,Quận 3,Lê Văn Sỹ,106.679535,10.787041,"07, 28"
453,Q3 093,Trần Quang Diệu,Trụ dừng,Quận 3,Trần Quang Diệu,106.678319,10.788375,07
450,QPN 030,Bệnh viện An Sinh,Trụ dừng,Quận Phú Nhuận,Trần Huy Liệu,106.678123,10.791023,07
452,QPN 031,Ngã Tư Nguyễn Văn Trỗi,Trụ dừng,Quận Phú Nhuận,Trần Huy Liệu,106.677992,10.793028,07
455,QTB 101,Rạp Tân Sơn Nhất,Nhà chờ,Quận Tân Bình,Phổ Quang,106.665924,10.80244,"07, 148, 50, 59"
457,QTB 102,Bãi xe buýt Phổ Quang,Trụ dừng,Quận Tân Bình,Phổ Quang,106.6667,10.805417,"07, 148, 50, 59"
454,QTB 103,Cây xăng Quân đội,Trụ dừng,Quận Tân Bình,Phổ Quang,106.668495,10.807221,"07, 148, 50, 59"
456,QPN 033,Trường Đại học Kỹ thuật Công nghệ,Trụ dừng,Quận Phú Nhuận,Phổ Quang,106.672236,10.808204,"07, 148, 50, 59"
459,QPN 036,Cuối công viên Gia Định,Nhà chờ,Quận Phú Nhuận,Hoàng Minh Giám,106.674929,10.809727,"07, 148, 50, 59"
458,QPN 037,Ngã ba Đặng Văn Sâm,Nhà chờ,Quận Phú Nhuận,Hoàng Minh Giám,106.676399,10.811382,"07, 148, 50, 59"
461,QPN 038,Đầu công viên Gia Định,Nhà chờ,Quận Phú Nhuận,Hoàng Minh Giám,106.677949,10.813231,"07, 148, 50, 59"
460,QGV 043,Ngã ba Phạm Ngũ Lão,Trụ dừng,Quận Gò Vấp,Nguyễn Thái Sơn,106.68407,10.820834,"07, 148"
463,QGV 044,Trường Đại học Công nghiệp,Trụ dừng,Quận Gò Vấp,Nguyễn Thái Sơn,106.685636,10.822789,"07, 148"
462,QGV 045,UBND Phường 5,Trụ dừng,Quận Gò Vấp,Nguyễn Thái Sơn,106.687975,10.825134,"07, 146, 148"
468,BX43,Bãi hậu cần số 1,Bến xe,Quận Gò Vấp,Phan Văn Trị,106.69188,10.823601,"07, 148"
539,QGV 001,Bãi hậu cần số 1,Trụ dừng,Quận Gò Vấp,Phan Văn Trị,106.69195,10.823964,"07, 36"
540,QGV 048,UBND Phường 5,Trụ dừng,Quận Gò Vấp,Nguyễn Thái Sơn,106.688259,10.825513,"07, 146, 148"
541,QGV 049,Trường Đại học Công nghiệp,Trụ dừng,Quận Gò Vấp,Nguyễn Thái Sơn,106.685277,10.822779,"07, 148"
543,QGV 050 ,Ngã ba Phạm Ngũ Lão,Trụ dừng,Quận Gò Vấp,Nguyễn Thái Sơn,106.683925,10.821045,"07, 148"
545,QPN 026,Nhà thờ Phú Nhuận,Trụ dừng,Quận Phú Nhuận,Trần Huy Liệu,106.677525,10.798646,07
549,QPN 027,Công an Quận Phú Nhuận,Trụ dừng,Quận Phú Nhuận,Trần Huy Liệu,106.677702,10.795658,07
550,QPN 028,Ngã tư Nguyễn Văn Trỗi,Trụ dừng,Quận Phú Nhuận,Trần Huy Liệu,106.677887,10.792667,07
552,QPN 029,Bệnh viện An Sinh,Trụ dừng,Quận Phú Nhuận,Trần Huy Liệu,106.677986,10.791171,07
554,Q3 094,Lê Văn Sỹ,Trụ dừng,Quận 3,Trần Quang Diệu,106.678123,10.788544,07
557,Q3 047,Chợ Nguyễn Văn Trỗi,Trụ dừng,Quận 3,Lê Văn Sỹ,106.679322,10.786853,"07, 28"
559,Q3 035,Trần Quốc Thảo,Nhà chờ,Quận 3,Kỳ Đồng,106.682868,10.78456,07
561,Q3 036,Nhà thờ Dòng chúa Cứu thế,Nhà chờ,Quận 3,Kỳ Đồng,106.681061,10.780704,07
565,Q3 075,Nguyễn Thông,Trụ dừng,Quận 3,Nguyễn Thông,106.679573,10.781328,07
560,Q3 066,Ga Hòa Hưng,Trụ dừng,Quận 3,Nguyễn Phúc Nguyên,106.678383,10.781528,07
566,Q3 067,Rạch Bùng Binh,Trụ dừng,Quận 3,Nguyễn Phúc Nguyên,106.678888,10.780645,07
562,Q3 068,Vòng xoay Dân Chủ,Trụ dừng,Quận 3,Nguyễn Phúc Nguyên,106.681038,10.778592,07
568,Q10 001,Siêu thị Maximark,Trụ dừng,Quận 10,Đường 3/2,106.680771,10.777162,"07, 10, 91"
563,Q10 002,Bệnh viện Bình Dân,Trụ dừng,Quận 10,Đường 3/2,106.678947,10.774785,"07, 91"
95,Q10 003,Học viện Hành chính Quốc gia,Nhà chờ,Quận 10,Đường 3/2,106.676951,10.773457,"07, 10, 91"
94,Q10 004,Học viện Hành chính Quốc gia,Nhà chờ,Quận 10,Đường 3/2,106.675701,10.772661,"07, 91"
97,Q10 005,Nhà hát Hòa Bình,Nhà chờ,Quận 10,Đường 3/2,106.674202,10.771712,"07, 91"
96,Q10 006,Nhà thờ Vinh Sơn,Trụ dừng,Quận 10,Đường 3/2,106.67215,10.770521,07
99,Q10 007,Bệnh viện Nhi Đồng 1,Trụ dừng,Quận 10,Đường 3/2,106.670364,10.769578,07
564,Q10 075,Học viện Quân y,Trụ dừng,Quận 10,Nguyễn Tri Phương,106.667259,10.766769,"07, 59"
567,Q10 076,Chợ Nhật Tảo,Trụ dừng,Quận 10,Nguyễn Tri Phương,106.667664,10.764991,"07, 59"
570,Q10 077,Trường Hoàng Văn Thụ,Trụ dừng,Quận 10,Nguyễn Tri Phương,106.668015,10.763371,"07, 59"
571,Q10 078,Đại học kinh tế,Trụ dừng,Quận 10,Nguyễn Tri Phương,106.668488,10.761049,"07, 10, 59"
569,Q5 036,Ngô Gia Tự,Nhà chờ,Quận 5,Ngô Gia Tự,106.668062,10.758801,"07, 150"
573,Q5 035,Trung tâm giáo dục thường xuyên,Nhà chờ,Quận 5,Ngô Gia Tự,106.667016,10.757331,"07, 150"
397,Q5 013,Rạp Đại Quang,Nhà chờ,Quận 5,Châu Văn Liêm,106.658792,10.752445,"07, 08, 45, 56, 62"
496,BX 20,Bến xe buýt Quận 8,Bến xe,Quận 8,Quốc lộ 50,106.656357,10.733545,"08, 22, 25, 34, 59, 62, 62-11, 62-9"
502,Q8 073,Bùi Minh Trực,Ô sơn,Quận 8,Quốc lộ 50,106.656346,10.73646,"08, 25, 45, 47, 59, 62"
499,Q8 074,Cầu Nhị Thiên Đường,Trụ dừng,Quận 8,Quốc lộ 50,106.656427,10.738769,"08, 25, 45, 47, 59, 62"
542,Q8 111,Tùng Thiện Vương,Ô sơn,Quận 8,Tùng Thiện Vương,106.656802,10.744513,"08, 25, 45, 46, 47, 62"
501,Q8 112,Chợ Xóm Củi,Trụ dừng,Quận 8,Tùng Thiện Vương,106.659763,10.746073,"08, 25, 45, 46, 47, 62"
544,Q5 033,Bệnh viện Hùng Vương,Nhà chờ,Quận 5,Lý Thường Kiệt,106.662333,10.756013,"08, 62, 63-1"
503,Q10 051,CoopMart Lý Thường Kiệt,Nhà chờ,Quận 10,Lý Thường Kiệt,106.661351,10.759602,"08, 63-1"
546,Q10 052,Điện lực Phú Thọ,Trụ dừng,Quận 10,Lý Thường Kiệt,106.659763,10.76523,"08, 103, 63-1, 94"
504,Q10 053,Nhà thi đấu Phú Thọ,Nhà chờ,Quận 10,Lý Thường Kiệt,106.659065,10.767367,"08, 103, 63-1"
505,Q10 054,Bệnh viện Trưng Vương,Trụ dừng,Quận 10,Lý Thường Kiệt,106.658524,10.769652,"08, 103, 63-1"
506,Q10 055,Đại học Bách Khoa,Nhà chờ,Quận 10,Lý Thường Kiệt,106.657698,10.772603,"08, 50, 59, 63-1, 94"
547,Q10 056,Bưu Điện Phú Thọ,Nhà chờ,Quận 10,Lý Thường Kiệt,106.656625,10.776487,"08, 50, 59, 63-1"
507,QTB 023,Ngã ba Thành Thái,Nhà chờ,Quận Tân Bình,Lý Thường Kiệt,106.655912,10.7788,"08, 50, 59, 63-1"
548,QTB 024,Siêu thị Nguyễn Kim - CMC Tân Bình,Trụ dừng,Quận Tân Bình,Lý Thường Kiệt,106.65529,10.781072,"08, 50, 59, 63-1"
551,QTB 025,Cây xăng Đôi,Nhà chờ,Quận Tân Bình,Lý Thường Kiệt,106.654431,10.784002,"08, 50, 59, 63-1, 94"
508,QTB 026,Chợ Tân Bình,Trụ dừng,Quận Tân Bình,Lý Thường Kiệt,106.653786,10.786222,"08, 50, 59, 63-1"
509,QTB 027,Bệnh viện chỉnh hình và Phục hồi chức năng,Nhà chờ,Quận Tân Bình,Lý Thường Kiệt,106.653076,10.788689,"08, 50, 59, 63-1"
553,QTB 028,Bệnh viện Thống Nhất,Nhà chờ,Quận Tân Bình,Lý Thường Kiệt,106.653074,10.792101,"08, 145, 148, 50, 59, 63-1"
510,QTB 034,Bệnh viện Quận Tân Bình,Nhà chờ,Quận Tân Bình,Hoàng Văn Thụ,106.655198,10.79472,"08, 103, 13, 145, 148, 30, 50, 59, 63-1, 64, 65, 94"
555,QTB 035,Nhà hàng Đông Phương,Nhà chờ,Quận Tân Bình,Hoàng Văn Thụ,106.659216,10.798556,"08, 103, 145, 148, 50, 59, 63-1, 64"
511,QPN 006,Siêu Thị Big C,Trụ dừng,Quận Phú Nhuận,Hoàng Văn Thụ,106.669462,10.799942,"08, 104, 60-7, 64"
556,QPN 007,Khách Sạn Tân Sơn Nhất,Trụ dừng,Quận Phú Nhuận,Hoàng Văn Thụ,106.670873,10.799805,"08, 104, 60-7, 64"
512,QPN 008,Công an Phú Nhuận,Trụ dừng,Quận Phú Nhuận,Hoàng Văn Thụ,106.673818,10.799542,"08, 104, 60-7, 64"
558,QPN 015 ,Ngã tư Phan Xích Long,Trụ dừng,Quận Phú Nhuận,Phan Đăng Lưu,106.681741,10.800416,"08, 104, 55, 60-7, 64"
513,QPN 016,Ngã Tư Thích Quảng Đức,Trụ dừng,Quận Phú Nhuận,Phan Đăng Lưu,106.684075,10.802682,"08, 104, 55, 60-7, 64"
514,QPN 017,Trường Đại học Văn Hiến,Trụ dừng,Quận Phú Nhuận,Phan Đăng Lưu,106.686108,10.803847,"08, 104, 55, 60-7, 64"
515,QPN 018,Bệnh Viện Phước An,Trụ dừng,Quận Phú Nhuận,Phan Đăng Lưu,106.687916,10.803615,"08, 104, 55, 60-7, 64"
7262,QPN 060,Công viên Văn hóa Phú Nhuận,Nhà chờ,Quận Phú Nhuận,Phan Đăng Lưu,106.690384,10.803251,"08, 104, 55, 60-7, 64"
422,QBTHT056,UBND Quận Bình Thạnh,Trụ dừng,Quận Bình Thạnh,Phan Đăng Lưu,106.695153,10.802666,"08, 104, 18, 31, 36, 55, 60-7"
517,QBTH 114,Lăng Ông Bà Chiểu,Nhà chờ,Quận Bình Thạnh,Phan Đăng Lưu,106.697159,10.802408,"08, 104, 55, 60-7"
518,QBTH 006,Chợ Bà Chiểu,Trụ dừng,Quận Bình Thạnh,Bạch Đằng,106.699471,10.802893,"08, 104, 146, 24, 55, 60-7, 91"
519,QBTH 007,Tòa Án nhân dân Quận Bình Thạnh,Trụ dừng,Quận Bình Thạnh,Bạch Đằng,106.701204,10.803615,"08, 104, 146, 24, 55, 60-7, 91"
520,QBTH 008,Chùa Bồ Đề,Trụ dừng,Quận Bình Thạnh,Bạch Đằng,106.703988,10.803293,"08, 104, 146, 24, 55, 60-7, 91"
521,QBTH 009,Nhà thờ Hàng Xanh,Trụ dừng,Quận Bình Thạnh,Bạch Đằng,106.706713,10.803077,"08, 104, 146, 24, 55, 60-7, 91"
522,QBTH 136,Cổng ra - Bến xe Miền Đông 3,Trụ dừng,Quận Bình Thạnh,Quốc lộ 13,106.712532,10.811666,"08, 19, 45, 67, 91, 93"
303,QBTH 137,Cổng ra - Bến xe Miền Đông 2,Trụ dừng,Quận Bình Thạnh,Quốc lộ 13,106.712608,10.81232,"08, 146, 24, 45, 64, 67, 93"
523,QTD 118,Ngã tư Bình Triệu,Trụ dừng,Quận Thủ Đức,Phạm Văn Đồng,106.715655,10.82603,"08, 50, 93"
524,QTD 119,Đường số 20,Nhà chờ,Quận Thủ Đức,Phạm Văn Đồng,106.721032,10.827878,"08, 50, 93"
525,QTD 120,Chùa Ưu Đàm,Nhà chờ,Quận Thủ Đức,Phạm Văn Đồng,106.72476,10.830679,"08, 50, 93"
526,QTD 121,Cá sấu Hoa cà,Nhà chờ,Quận Thủ Đức,Phạm Văn Đồng,106.728331,10.833606,"08, 50, 89, 93"
527,QTD 122,THCS Ngô Chí Quốc,Nhà chờ,Quận Thủ Đức,Phạm Văn Đồng,106.730713,10.83555,"08, 50, 89, 93"
528,QTD 123,Chùa An Lạc,Nhà chờ,Quận Thủ Đức,Phạm Văn Đồng,106.733288,10.837484,"08, 50, 57, 93"
529,QTD 124,Cầu Gò Dưa,Nhà chờ,Quận Thủ Đức,Phạm Văn Đồng,106.740509,10.839776,"08, 50, 57, 93"
531,QTD 126,Trường Cao đẳng Vinatex,Ô sơn,Quận Thủ Đức,Kha Vạn Cân,106.744022,10.840767,"08, 57, 93"
532,QTD 127,Trạm xăng 27-7,Trụ dừng,Quận Thủ Đức,Kha Vạn Cân,106.746346,10.84129,"08, 57, 93"
533,QTD 128,Công an phường Linh Đông,Trụ dừng,Quận Thủ Đức,Kha Vạn Cân,106.74966,10.844781,"08, 57, 93"
534,QTD 129,Trạm Cầu Ngang,Trụ dừng,Quận Thủ Đức,Kha Vạn Cân,106.75209,10.847416,"08, 57, 93"
535,QTD 130,Chợ Thủ Đức,Trụ dừng,Quận Thủ Đức,Kha Vạn Cân,106.754372,10.850158,"08, 57, 93"
498,Q9 219,Chợ chiều,Trụ dừng,Quận 9,Xa Lộ Hà Nội,106.780474,10.853511,"08, 150, 30, 52, 60-3, 60-7, 67, 76"
536,Q9 221,Cầu Vượt Trạm 2,Nhà chờ,Quận 9,Quốc lộ 1,106.797538,10.863595,"08, 150, 19, 30, 33, 53, 60-1, 60-2, 60-3, 60-7, 67, 76, 93"
537,Q9 223,Suối Tiên,Trụ dừng,Quận 9,Quốc lộ 1,106.802081,10.866113,"08, 150, 19, 30, 33, 53, 60-1, 60-2, 60-3, 67, 76, 93, 99"
1919,Q9 225,Nghĩa trang liệt sĩ TP.HCM,Trụ dừng,Quận 9,Quốc lộ 1,106.809458,10.873515,"08, 150, 19, 30, 33, 56, 60-1, 60-2, 60-3, 67, 93, 99"
7644,QTD 251,Vành đại ĐHQG TPHCM,Nhà chờ,Quận Thủ Đức,Đường 621,106.806995,10.874405,"08, 10, 19, 30, 33, 53, 99"
7648,QTD 253,KTX Khu A ĐH Quốc Gia TPHCM,Nhà chờ,Quận Thủ Đức,Quảng Trường Sáng Tạo,106.804968,10.875886,"08, 10, 19, 30, 33, 50, 52, 99"
7623,QTD 254,Đại học Quốc tế,Nhà chờ,Quận Thủ Đức,Quảng Trường Sáng Tạo,106.802537,10.876655,"08, 10, 19, 30, 52"
7632,QTD 250,Đại học Khoa học xã hội và Nhân văn,Nhà chờ,Quận Thủ Đức,Quảng Trường Sáng Tạo,106.802334,10.873446,"08, 10, 19, 30, 50, 53"
7651,QTD 272,ĐH Khoa học tự nhiên,Trụ dừng,Quận Thủ Đức,Đường 621,106.806271,10.874619,"08, 10, 19, 30, 33, 50, 52, 99"
7829,BX92,Bến xe buýt ĐH Quốc gia TPHCM (mới),Bến xe,Quận Thủ Đức,Nguyễn Hiền,106.807659,10.874479,"08, 10, 19, 30, 50, 52"
7650,QTD 271,Bến xe buýt Khu A ĐHQG,Trụ dừng,Quận Thủ Đức,Quảng Trường Sáng Tạo,106.803042,10.87362,"08, 10, 19, 30, 50, 52, 53"
7624,QTD 255,Đại học Quốc tế,Nhà chờ,Quận Thủ Đức,Quảng Trường Sáng Tạo,106.80257,10.876476,"08, 10, 19, 30, 52, 53"
7647,QTD 252,KTX Khu A ĐH Quốc Gia TPHCM,Nhà chờ,Quận Thủ Đức,Quảng Trường Sáng Tạo,106.804914,10.875638,"08, 10, 19, 30, 33, 50, 52, 99"
572,QTD 175,Đại học An Ninh Nhân Dân,Trụ dừng,Quận Thủ Đức,Quốc lộ 1,106.806657,10.871402,"08, 150, 19, 30, 60-1, 60-2, 60-3, 67"
576,QTD 176,Trường giáo dục Quốc phòng,Trụ dừng,Quận Thủ Đức,Quốc lộ 1,106.804147,10.868605,"08, 150, 19, 30, 60-2, 60-3, 67"
574,QTD 177,Khu DL Suối Tiên,Nhà chờ,Quận Thủ Đức,Quốc lộ 1,106.801116,10.86605,"08, 10, 150, 19, 30, 33, 53, 60-1, 60-2, 60-3, 60-7, 67, 76, 93, 99"
4559,QTD 197,Câu vượt Trạm 2,Nhà chờ,Quận Thủ Đức,Quốc lộ 1,106.797318,10.8639,"08, 30, 60-7, 67, 76"
3277,QTD 145,Chợ Thủ Đức,Trụ dừng,Quận Thủ Đức,Lê Văn Ninh,106.754005,10.850327,"08, 57, 93"
575,QTD 146,Trạm Cầu ngang,Biển treo,Quận Thủ Đức,Kha Vạn Cân,106.751587,10.847199,"08, 57, 93"
578,QTD 147,Công an Phường Linh Đông,Trụ dừng,Quận Thủ Đức,Kha Vạn Cân,106.749763,10.845116,"08, 57, 93"
577,QTD 148,Trạm xăng 27-7,Biển treo,Quận Thủ Đức,Kha Vạn Cân,106.74659,10.841721,"08, 57, 93"
579,QTD 149,Trường Cao đẳng Vinatex,Biển treo,Quận Thủ Đức,Kha Vạn Cân,106.744548,10.840851,"08, 57, 93"
583,QTD 153,Nút giao Linh Đông -PVĐ,Nhà chờ,Quận Thủ Đức,Phạm Văn Đồng,106.742682,10.84077,"08, 50, 57, 93"
585,QTD 154,Chùa An Lạc,Nhà chờ,Quận Thủ Đức,Phạm Văn Đồng,106.732328,10.837284,"08, 50, 89, 93"
584,QTD 155,Cá sấu Hoa Cà,Nhà chờ,Quận Thủ Đức,Phạm Văn Đồng,106.727916,10.833634,"08, 50, 89, 93"
587,QTD 156,Đường số 20,Nhà chờ,Quận Thủ Đức,Phạm Văn Đồng,106.720988,10.828232,"08, 50, 93"
586,QTD 157,Ngã tư Bình Triệu,Trụ dừng,Quận Thủ Đức,Phạm Văn Đồng,106.715848,10.826557,"08, 50, 93"
588,QBTH 002,Nhà thờ Hàng Xanh,Trụ dừng,Quận Bình Thạnh,Bạch Đằng,106.708032,10.803177,"08, 104, 146, 24, 55, 60-7, 91"
589,QBTH 003,Chùa Bồ Đề,Trụ dừng,Quận Bình Thạnh,Bạch Đằng,106.704015,10.803483,"08, 104, 146, 24, 55, 60-7, 91"
590,QBTH 004,Tòa Án nhân dân Quận Bình Thạnh,Trụ dừng,Quận Bình Thạnh,Bạch Đằng,106.701187,10.803873,"08, 104, 146, 24, 55, 60-7, 91"
592,QBTH 005,Chợ Bà Chiểu,Trụ dừng,Quận Bình Thạnh,Bạch Đằng,106.699374,10.803125,"08, 104, 146, 24, 55, 60-7, 91"
591,QBTH 115,UBND Quận Bình Thạnh,Trụ dừng,Quận Bình Thạnh,Phan Đăng Lưu,106.695786,10.802819,"08, 104, 18, 31, 36, 55, 60-7, 91"
594,QBTH 116,Bệnh Viện Gia Định,Nhà chờ,Quận Bình Thạnh,Phan Đăng Lưu,106.693543,10.803119,"08, 104, 146, 55, 60-7, 64"
593,QBTH 117,PCCC quận Bình Thạnh,Nhà chờ,Quận Bình Thạnh,Phan Đăng Lưu,106.691741,10.803362,"08, 104, 55, 60-7, 64"
595,QPN 019,Bệnh viện Phước An,Trụ dừng,Quận Phú Nhuận,Phan Đăng Lưu,106.687637,10.803878,"08, 104, 55, 60-7, 64"
596,QPN 020,Đại học Văn Hiến,Trụ dừng,Quận Phú Nhuận,Phan Đăng Lưu,106.686119,10.804078,"08, 104, 55, 60-7, 64"
597,QPN 021,Ngã Tư Thích Quảng Đức,Trụ dừng,Quận Phú Nhuận,Phan Đăng Lưu,106.683608,10.802529,"08, 104, 55, 60-7, 64"
598,QPN 022,Ngã tư Phan Xích Long,Trụ dừng,Quận Phú Nhuận,Phan Đăng Lưu,106.681892,10.80088,"08, 104, 55, 60-7, 64"
599,QPN 010,Ngã tư Phú Nhuận,Trụ dừng,Quận Phú Nhuận,Hoàng Văn Thụ,106.679236,10.799325,"08, 104, 60-7, 64"
7577,QPN 061,Công An Phú Nhuận,Trụ dừng,Quận Phú Nhuận,Hoàng Văn Thụ,106.67436,10.799721,"08, 60-7, 64"
601,QPN 011,Siêu thị Big C,Nhà chờ,Quận Phú Nhuận,Hoàng Văn Thụ,106.669559,10.800153,"08, 104, 60-7, 64"
600,QTB 038,Vòng xoay Lăng Cha Cả,Trụ dừng,Quận Tân Bình,Hoàng Văn Thụ,106.659071,10.798725,"08, 103, 145, 148, 50, 59, 63-1, 64"
602,QTB 039,Công an Quận Tân Bình,Trụ dừng,Quận Tân Bình,Hoàng Văn Thụ,106.657425,10.79717,"08, 103, 145, 148, 50, 59, 63-1, 64"
604,QTB 064,Hội Chợ Triển lãm Tân Bình,Trụ dừng,Quận Tân Bình,Xuân Diệu,106.655145,10.796122,"08, 103, 145, 148, 30, 50, 59, 64"
603,QTB 065,Trường Phạm Ngũ Lão,Trụ dừng,Quận Tân Bình,Xuân Hồng,106.654066,10.796032,"08, 103, 145, 148, 30, 50, 59, 64, 65"
606,QTB 066,Cây xăng Đôi,Trụ dừng,Quận Tân Bình,Xuân Hồng,106.652184,10.794256,"08, 103, 145, 148, 30, 50, 59, 64, 65"
605,QTB 029,Bệnh viện Thống Nhất,Trụ dừng,Quận Tân Bình,Lý Thường Kiệt,106.6528,10.792122,"08, 145, 148, 50, 59, 63-1"
608,QTB 030,Bệnh viện chỉnh hình và phục hồi chức năng,Trụ dừng,Quận Tân Bình,Lý Thường Kiệt,106.652806,10.788718,"08, 50, 59, 63-1"
607,QTB 031,Chợ Tân Bình,Nhà chờ,Quận Tân Bình,Lý Thường Kiệt,106.653584,10.786131,"08, 50, 59, 63-1, 94"
610,QTB 032,Siêu thị Nguyễn Kim - CMC Tân Bình,Nhà chờ,Quận Tân Bình,Lý Thường Kiệt,106.654571,10.782695,"08, 50, 59, 63-1, 94"
609,QTB 033,Trường Nguyễn Thái Bình,Trụ dừng,Quận Tân Bình,Lý Thường Kiệt,106.655609,10.779233,"08, 50, 59, 63-1"
612,Q11 016,Bưu Điện Phú Thọ,Nhà chờ,Quận 11,Lý Thường Kiệt,106.656693,10.775314,"08, 50, 59, 63-1"
611,Q11 017,Đại Học Bách Khoa(cổng trước),Trụ dừng,Quận 11,Lý Thường Kiệt,106.657829,10.771331,"08, 50, 59, 63-1, 94"
613,Q11 018,Bệnh viện Trưng Vương,Nhà chờ,Quận 11,Lý Thường Kiệt,106.658295,10.769639,"08, 103, 63-1"
614,Q11 019,Điện Lực Phú Thọ (Nhà hàng phong lan),Nhà chờ,Quận 11,Lý Thường Kiệt,106.659363,10.765792,"08, 103, 63-1"
615,Q11 020,Chợ Nhật Tảo,Nhà chờ,Quận 11,Lý Thường Kiệt,106.660484,10.761718,"08, 63-1, 94"
616,Q5 034,Bệnh viện Hùng Vương,Nhà chờ,Quận 5,Lý Thường Kiệt,106.66221,10.755702,"08, 62, 63-1"
617,Q8 110,Tùng Thiện Vương,Trụ dừng,Quận 8,Tùng Thiện Vương,106.656926,10.74483,"08, 25, 45, 46, 47, 62"
618,Q8 069,Chùa Pháp Quang,Trụ dừng,Quận 8,Quốc lộ 50,106.656142,10.738642,"08, 25, 45, 47, 59, 62"
619,Q8 070,Bùi Minh Trực,Ô sơn,Quận 8,Quốc lộ 50,106.656126,10.73646,"08, 25, 45, 47, 59, 62"
621,Q6 071,Trường Võ Văn Tần,Biển treo,Quận 6,Phạm Đình Hổ,106.64975,10.752271,"09, 101, 62-1, 62-10, 62-2, 62-6, 62-7, 62-8, 84"
620,Q11 094,Cây Mai,Biển treo,Quận 11,Hồng Bàng,106.64926,10.753689,"09, 139, 145, 16, 62-1, 62-10, 62-2, 62-6, 62-7, 62-8, 63-1, 81"
622,Q11 095,Lò Siêu,Trụ dừng,Quận 11,Hồng Bàng,106.646787,10.753952,"09, 139, 145, 16, 62-1, 62-10, 62-2, 62-6, 62-7, 62-8, 63-1, 81, 84"
624,Q11 096,Cây Gõ,Biển treo,Quận 11,Hồng Bàng,106.644368,10.754232,"09, 139, 145, 16, 62-1, 62-10, 62-2, 62-6, 62-7, 62-8, 63-1, 81, 84"
625,Q11 097,Chùa Huê Lâm,Ô sơn,Quận 11,Hồng Bàng,106.641229,10.754558,"09, 14, 62-10, 62-6, 62-7"
623,Q11 098,Tân Hóa,Trụ dừng,Quận 11,Hồng Bàng,106.639089,10.754748,"09, 139, 14, 16, 62-1, 62-10, 62-2, 62-6, 62-7, 62-8, 63-1, 81, 84"
626,Q6 038,Cầu Ông Buông,Biển treo,Quận 6,Hồng Bàng,106.635574,10.754732,"09, 139, 14, 16, 32, 62-1, 62-10, 62-2, 62-7, 62-8, 63-1, 84"
627,Q6 044,Vòng xoay Phú Lâm,Trụ dừng,Quận 6,Kinh Dương Vương,106.633365,10.753346,"09, 139, 14, 32, 62-1, 62-10, 62-2, 62-8, 63-1, 84"
628,Q6 045,Cư Xá Phú Lâm,Nhà chờ,Quận 6,Kinh Dương Vương,106.63089,10.751475,"09, 139, 14, 32, 62-1, 62-10, 62-2, 62-8, 63-1, 84"
629,Q6 046,Hồ Bơi Phú Lâm,Trụ dừng,Quận 6,Kinh Dương Vương,106.628435,10.749589,"09, 139, 14, 32, 62-1, 62-10, 62-2, 62-8, 63-1, 84"
1386,Q6 047,Công Viên Phú Lâm,Nhà chờ,Quận 6,Kinh Dương Vương,106.624525,10.746384,"09, 139, 14, 32, 62-1, 62-10, 62-2, 62-8, 63-1, 84"
117,QBT 011,Vòng xoay Kinh Dương Vương,Trụ dừng,Quận Bình Tân,Kinh Dương Vương,106.622475,10.744746,"09, 139, 14, 148, 25, 32, 61, 62-1, 62-10, 62-2, 62-8, 63-1, 84"
116,QBT 012,Bến xe Miền Tây,Trụ dừng,Quận Bình Tân,Kinh Dương Vương,106.619096,10.741973,"09, 139, 14, 148, 25, 32, 61, 62-10, 62-2, 62-8, 63-1, 84"
4150,QBT 013,"428, Kinh Dương Vương",Ô sơn,Quận Bình Tân,Kinh Dương Vương,106.618377,10.741383,"09, 25, 61, 62-1, 62-2, 63-1, 84"
630,QBT 014,Bệnh viện Triều An,Trụ dừng,Quận Bình Tân,Kinh Dương Vương,106.616392,10.739675,"09, 102, 151, 25, 39, 41, 60-1, 61, 62-1, 62-10, 62-2, 62-8, 63-1, 84"
631,QBT 015,Hàng Dương,Trụ dừng,Quận Bình Tân,Kinh Dương Vương,106.613144,10.735138,"09, 102, 151, 39, 60-1, 61, 62-1, 62-10, 62-2, 62-8, 63-1, 84"
632,QBT 016,SinCo,Nhà chờ,Quận Bình Tân,Kinh Dương Vương,106.611028,10.731674,"09, 102, 151, 39, 60-1, 61, 62-1, 62-10, 62-2, 62-8, 63-1, 84"
633,QBT 017,Hoa hồng,Trụ dừng,Quận Bình Tân,Kinh Dương Vương,106.608276,10.729014,"09, 102, 151, 39, 60-1, 61, 62-1, 62-10, 62-2, 62-8, 63-1, 84"
634,QBT 018,An Lạc,Trụ dừng,Quận Bình Tân,Kinh Dương Vương,106.605751,10.72733,"09, 102, 60-1, 61, 62-1, 62-10, 62-2, 62-8, 63-1, 84"
635,QBT 019,Thời trang,Trụ dừng,Quận Bình Tân,Kinh Dương Vương,106.603027,10.725466,"09, 102, 60-1, 61, 62-1, 62-10, 62-2, 62-8, 63-1, 84"
636,HBC 362,Bãi xe Phương Trang,Trụ dừng,Huyện Bình Chánh,Quốc lộ 1A,106.600342,10.721022,"09, 102, 62-1, 62-10, 62-2, 62-8, 63-1, 84"
637,HBC 363,Hưng Nhơn,Nhà chờ,Huyện Bình Chánh,Quốc lộ 1A,106.598791,10.712241,"09, 101, 102, 62-1, 62-10, 62-2, 62-8, 63-1, 84"
638,HBC 364,Dương Đình Cúc,Trụ dừng,Huyện Bình Chánh,Quốc lộ 1A,106.598089,10.70706,"09, 101, 102, 62-1, 62-10, 62-2, 63-1, 84"
639,HBC 365,Nguyễn Hữu Trí,Trụ dừng,Huyện Bình Chánh,Quốc lộ 1A,106.596415,10.696112,"09, 102, 22, 62-1, 62-10, 62-2, 62-8, 63-1"
640,HBC 366,Nút giao Bình Thuận,Trụ dừng,Huyện Bình Chánh,Quốc lộ 1A,106.595101,10.691884,"09, 102, 22, 62-1, 62-10, 62-2, 62-8, 63-1"
3422,HBC 367,An Phú Tây,Trụ dừng,Huyện Bình Chánh,Quốc lộ 1A,106.593717,10.687614,"09, 62-1, 62-10, 62-2, 62-8, 63-1"
3430,HBC 385,Công ty Thiên Lộc,Trụ dừng,Huyện Bình Chánh,Quốc lộ 1A,106.592333,10.68472,"09, 62-1, 62-10, 62-2, 62-8, 63-1"
641,HBC 368,Văn phòng Ấp 5,Trụ dừng,Huyện Bình Chánh,Quốc lộ 1A,106.588969,10.681494,"09, 62-1, 62-10, 62-2, 62-8, 63-1"
643,HBC 369,Ô tô Hải Âu,Trụ dừng,Huyện Bình Chánh,Quốc lộ 1A,106.583154,10.676528,"09, 62-1, 62-10, 62-2, 62-8, 63-1"
642,HBC 370,Bùi Thanh Khiết,Trụ dừng,Huyện Bình Chánh,Quốc lộ 1A,106.580247,10.673877,"09, 62-1, 62-10, 62-2, 63-1, 73"
644,HBC 371,Trịnh Như Khuê,Trụ dừng,Huyện Bình Chánh,Quốc lộ 1A,106.576653,10.670561,"09, 62-1, 62-10, 62-2, 62-8, 63-1, 73"
645,HBC 372,Trường Trần Đại Nghĩa,Trụ dừng,Huyện Bình Chánh,Quốc lộ 1A,106.57455,10.668874,"09, 62-1, 62-10, 62-2, 62-8, 63-1, 73"
646,HBC 373,Chợ Bình Chánh,Trụ dừng,Huyện Bình Chánh,Quốc lộ 1A,106.571503,10.66647,"09, 62-1, 62-10, 62-2, 62-8, 63-1, 73"
647,HBC 274,Trịnh Như Khuê,Ô sơn,Huyện Bình Chánh,Đinh Đức Thiện,106.571159,10.663265,"09, 62-2"
648,HBC 275,Bờ Kinh,Trụ dừng,Huyện Bình Chánh,Đinh Đức Thiện,106.5764,10.660914,"09, 62-2"
649,HBC 276,Điện máy Lộc Đức,Ô sơn,Huyện Bình Chánh,Đinh Đức Thiện,106.579973,10.658794,"09, 62-2"
650,HBC 277,Công ty Tia Sáng,Trụ dừng,Huyện Bình Chánh,Đinh Đức Thiện,106.582661,10.657171,"09, 62-2"
651,HBC 278,Hương lộ 11 - Đinh Đức Thiện,Trụ dừng,Huyện Bình Chánh,Đinh Đức Thiện,106.584538,10.656021,"09, 62-2"
653,HBC 245,Chùa Liên Hoa,Trụ dừng,Huyện Bình Chánh,Hương Lộ 11,106.586008,10.656058,09
652,HBC 246,Xã Tân Quý Tây,Ô sơn,Huyện Bình Chánh,Hương Lộ 11,106.588406,10.657102,09
655,HBC 247,Đình Phước Bình,Trụ dừng,Huyện Bình Chánh,Hương Lộ 11,106.591641,10.658441,09
654,HBC 248,Minh Quân,Trụ dừng,Huyện Bình Chánh,Hương Lộ 11,106.594999,10.659975,09
657,HBC 249,Công ty Thông Hương,Ô sơn,Huyện Bình Chánh,Hương Lộ 11,106.598877,10.661657,09
656,HBC 250,Mầm non Bông Sen,Trụ dừng,Huyện Bình Chánh,Hương Lộ 11,106.600685,10.66191,09
659,HBC 251,Trường Tân Quý Tây,Trụ dừng,Huyện Bình Chánh,Hương Lộ 11,106.604617,10.659912,09
658,HBC 252,Chợ Hưng Long,Trụ dừng,Huyện Bình Chánh,Hương Lộ 11,106.606822,10.658847,09
661,HBC 253,Phòng khám Thanh Lịch,Trụ dừng,Huyện Bình Chánh,Hương Lộ 11,106.610336,10.657118,09
660,HBC 254,Trạm xăng dầu Mười Vũ,Trụ dừng,Huyện Bình Chánh,Hương Lộ 11,106.613297,10.655631,09
662,HBC 255,Trạm y tế xã Hưng Long,Trụ dừng,Huyện Bình Chánh,Hương Lộ 11,106.616902,10.653823,09
663,HBC 256,Đường liên ấp 3-4-5,Trụ dừng,Huyện Bình Chánh,Hương Lộ 11,106.619316,10.652584,09
664,HBC 257,Ủy ban xã Hưng Long,Trụ dừng,Huyện Bình Chánh,Hương Lộ 11,106.622046,10.651203,09
665,HBC 258,Ấp 2,Trụ dừng,Huyện Bình Chánh,Hương Lộ 11,106.626386,10.648968,09
4159,HBC 259,Hội Quán Thanh Niên,Ô sơn,Huyện Bình Chánh,Hương Lộ 11,106.629074,10.64747,09
667,HBC 260,Tân Liễu,Trụ dừng,Huyện Bình Chánh,Hương Lộ 11,106.632668,10.645615,09
666,HBC 261,Hốc Hưu,Ô sơn,Huyện Bình Chánh,Hương Lộ 11,106.635656,10.644028,09
669,HBC 262,Trạm Xăng Hòa Hiệp,Trụ dừng,Huyện Bình Chánh,Hương Lộ 11,106.639711,10.641819,09
668,HBC 263,Nguyễn Văn Thời,Ô sơn,Huyện Bình Chánh,Hương Lộ 11,106.641948,10.640617,09
671,HBC 264,Nguyễn Văn Long,Trụ dừng,Huyện Bình Chánh,Hương Lộ 11,106.644271,10.639399,09
3043,BX 58,Hưng Long,Bến xe,Huyện Bình Chánh,Quốc lộ 50,106.647307,10.637669,"09, 47"
672,HBC 225,Nguyễn Văn Long,Ô sơn,Huyện Bình Chánh,Hương Lộ 11,106.644459,10.639393,09
674,HBC 226,Nguyễn Văn Thời,Ô sơn,Huyện Bình Chánh,Hương Lộ 11,106.6416,10.640954,09
677,HBC 227,Trạm Xăng Hòa Hiệp,Trụ dừng,Huyện Bình Chánh,Hương Lộ 11,106.639454,10.642109,09
676,HBC 228,Hốc Hưu,Ô sơn,Huyện Bình Chánh,Hương Lộ 11,106.636085,10.643933,09
679,HBC 229,Tân Liễu,Trụ dừng,Huyện Bình Chánh,Hương Lộ 11,106.63219,10.64601,09
678,HBC 230,Hội Quán Thanh Niên,Ô sơn,Huyện Bình Chánh,Hương Lộ 11,106.629481,10.647491,09
681,HBC 231,Ấp 2,Trụ dừng,Huyện Bình Chánh,Hương Lộ 11,106.626177,10.649242,09
680,HBC 232,Ủy ban xã Hưng Long,Trụ dừng,Huyện Bình Chánh,Hương Lộ 11,106.622009,10.651377,09
683,HBC 233,Đường Liên ấp 3-4-5,Trụ dừng,Huyện Bình Chánh,Hương Lộ 11,106.619589,10.652637,09
682,HBC 234,Trạm y tế xã Hưng Long,Trụ dừng,Huyện Bình Chánh,Hương Lộ 11,106.616789,10.654008,09
685,HBC 235,Trạm xăng dầu Mười Vũ,Trụ dừng,Huyện Bình Chánh,Hương Lộ 11,106.613104,10.655869,09
684,HBC 236,Phòng khám Thanh Lịch,Trụ dừng,Huyện Bình Chánh,Hương Lộ 11,106.610223,10.657329,09
687,HBC 237,chợ Hưng Long,Trụ dừng,Huyện Bình Chánh,Hương Lộ 11,106.606768,10.659011,09
686,HBC 238,Trường Tân Quý Tây,Trụ dừng,Huyện Bình Chánh,Hương Lộ 11,106.604794,10.65996,09
689,HBC 239,Mầm non Bông Sen,Ô sơn,Huyện Bình Chánh,Hương Lộ 11,106.600594,10.662079,09
688,HBC 240,Công ty Thông Hương,Ô sơn,Huyện Bình Chánh,Hương Lộ 11,106.598958,10.661831,09
691,HBC 241,Minh Quân,Trụ dừng,Huyện Bình Chánh,Hương Lộ 11,106.595128,10.66016,09
690,HBC 242,Đình Phước Bình,Trụ dừng,Huyện Bình Chánh,Hương Lộ 11,106.591721,10.658599,09
693,HBC 243,Xã Tân Quý Tây,Ô sơn,Huyện Bình Chánh,Hương Lộ 11,106.588524,10.65726,09
692,HBC 244,Chùa Liên Hoa,Trụ dừng,Huyện Bình Chánh,Hương lộ 11,106.586035,10.656206,09
695,HBC 269,Đinh Đức Thiện - Hương lộ 11,Trụ dừng,Huyện Bình Chánh,Đinh Đức Thiện,106.584646,10.656101,"09, 62-2"
694,HBC 270,Công ty Tia Sáng,Trụ dừng,Huyện Bình Chánh,Đinh Đức Thiện,106.582854,10.657213,"09, 62-2"
697,HBC 271,Điện máy Lộc Đức,Trụ dừng,Huyện Bình Chánh,Đinh Đức Thiện,106.580096,10.658847,"09, 62-2"
696,HBC 272,Bờ Kinh,Trụ dừng,Huyện Bình Chánh,Đinh Đức Thiện,106.576663,10.660903,"09, 62-2"
3435,HBC 273,Trịnh Như Khuê,Ô sơn,Huyện Bình Chánh,Đinh Đức Thiện,106.571363,10.663328,"09, 62-2"
699,HBC 380,Chợ Bình Chánh,Ô sơn,Huyện Bình Chánh,Quốc lộ 1A,106.571835,10.666301,"09, 62-1, 62-10, 62-2, 62-8, 63-1, 73"
698,HBC 381,Trường Trần Đại Nghĩa,Trụ dừng,Huyện Bình Chánh,Quốc lộ 1A,106.574904,10.668742,"09, 62-1, 62-10, 62-2, 62-8, 63-1, 73"
701,HBC 382,Trịnh Như Khuê,Trụ dừng,Huyện Bình Chánh,Quốc lộ 1A,106.576663,10.670197,"09, 62-1, 62-10, 62-2, 62-8, 63-1, 73"
700,HBC 383,Ô tô Hải Âu,Trụ dừng,Huyện Bình Chánh,Quốc lộ 1A,106.582333,10.675522,"09, 62-1, 62-10, 62-2, 62-8, 63-1"
703,HBC 384,Văn phòng Ấp 5,Trụ dừng,Huyện Bình Chánh,Quốc lộ 1A,106.58928,10.681405,"09, 62-1, 62-10, 62-2, 62-8, 63-1"
3431,HBC 386,Công ty Thiên Lộc,Trụ dừng,Huyện Bình Chánh,Quốc lộ 1A,106.59251,10.68452,"09, 62-1, 62-10, 62-2, 62-8, 63-1"
3432,HBC 387,An Phú Tây,Trụ dừng,Huyện Bình Chánh,Quốc lộ 1A,106.593695,10.686876,"09, 62-1, 62-10, 62-2, 62-8, 63-1"
702,HBC 388,Nút giao Bình Thuận,Trụ dừng,Huyện Bình Chánh,Quốc lộ 1A,106.595428,10.691816,"09, 102, 22, 62-1, 62-10, 62-2, 62-8, 63-1"
704,HBC 389,Nguyễn Hữu Trí,Trụ dừng,Huyện Bình Chánh,Quốc lộ 1A,106.597059,10.697161,"09, 102, 62-1, 62-10, 62-2, 62-8, 63-1, 84"
705,HBC 390,Dương Đình Cúc,Trụ dừng,Huyện Bình Chánh,Quốc lộ 1A,106.598276,10.706422,"09, 101, 102, 62-1, 62-10, 62-2, 62-8, 63-1, 84"
706,HBC 392,Hưng Nhơn,Nhà chờ,Huyện Bình Chánh,Quốc lộ 1A,106.599339,10.71202,"09, 101, 102, 62-1, 62-10, 62-2, 62-8, 63-1, 84"
711,HBC 393,Trần Đại Nghĩa,Trụ dừng,Huyện Bình Chánh,Quốc lộ 1A,106.600878,10.720838,"09, 102, 62-1, 62-10, 62-2, 62-8, 63-1, 84"
708,QBT 001,Cầu An Lạc,Trụ dừng,Quận Bình Tân,Kinh Dương Vương,106.602337,10.724317,"09, 102, 60-1, 61, 62-1, 62-10, 62-2, 62-8, 63-1, 84"
712,QBT 002,Hoa Hồng,Trụ dừng,Quận Bình Tân,Kinh Dương Vương,106.605191,10.726583,"09, 102, 60-1, 61, 62-1, 62-10, 62-2, 62-8, 63-1, 84"
709,QBT 003,Hàng Dương,Trụ dừng,Quận Bình Tân,Kinh Dương Vương,106.607605,10.72832,"09, 102, 151, 39, 60-1, 61, 62-1, 62-10, 62-2, 62-8, 63-1, 84"
714,QBT 004,Ủy ban,Trụ dừng,Quận Bình Tân,Kinh Dương Vương,106.610255,10.729977,"09, 102, 151, 39, 60-1, 61, 62-1, 62-10, 62-2, 62-8, 63-1, 84"
710,QBT 005,Lâm Thành,Trụ dừng,Quận Bình Tân,Kinh Dương Vương,106.61298,10.734278,"09, 102, 151, 39, 60-1, 61, 62-1, 62-10, 62-2, 62-8, 63-1, 84"
716,QBT 006,Tên Lửa,Trụ dừng,Quận Bình Tân,Kinh Dương Vương,106.614906,10.737541,"09, 102, 151, 39, 60-1, 61, 62-1, 62-10, 62-2, 62-8, 63-1, 84"
713,QBT 007,Bệnh viện Triều An,Nhà chờ,Quận Bình Tân,Kinh Dương Vương,106.61687,10.739665,"09, 102, 151, 25, 39, 41, 60-1, 61, 62-1, 62-10, 62-2, 62-8, 63-1, 84"
119,QBT 008,Bến xe Miền Tây,Nhà chờ,Quận Bình Tân,Kinh Dương Vương,106.618468,10.741035,"09, 25, 61, 62-1, 62-10, 62-2, 62-8, 63-1, 84"
4149,QBT 009,Chợ An Lạc ,Trụ dừng,Quận Bình Tân,Kinh Dương Vương,106.62136,10.743396,"09, 139, 14, 148, 25, 32, 61, 62-1, 62-10, 62-2, 62-8, 63-1, 84"
140,QBT 010,Kinh Dương Vương,Trụ dừng,Quận Bình Tân,Kinh Dương Vương,106.623162,10.744919,"09, 139, 14, 148, 25, 32, 61, 62-1, 62-10, 62-2, 62-8, 63-1, 84"
718,Q6 048,Công viên Phú Lâm,Trụ dừng,Quận 6,Kinh Dương Vương,106.626257,10.747549,"09, 139, 14, 32, 62-1, 62-10, 62-2, 62-8, 63-1, 84"
715,Q6 049,Hồ Bơi Phú Lâm,Trụ dừng,Quận 6,Kinh Dương Vương,106.627963,10.748914,"09, 139, 14, 32, 62-1, 62-10, 62-2, 62-8, 63-1, 84"
720,Q6 050,Cư xá Phú Lâm,Trụ dừng,Quận 6,Kinh Dương Vương,106.630914,10.751217,"09, 139, 14, 32, 62-1, 62-10, 62-2, 62-8, 63-1, 84"
717,Q6 051,Vòng xoay Phú Lâm,Trụ dừng,Quận 6,Kinh Dương Vương,106.633542,10.75322,"09, 139, 14, 62-1, 62-10, 62-2, 62-8, 63-1, 84"
724,Q6 039,Cầu Ông Buông,Trụ dừng,Quận 6,Hồng Bàng,106.637995,10.754548,"09, 139, 14, 16, 62-1, 62-10, 62-2, 62-6, 62-7, 62-8, 63-1, 81, 84"
719,Q6 040,Ngân hàng ACB,Trụ dừng,Quận 6,Hồng Bàng,106.641245,10.754295,"09, 139, 14, 16, 62-1, 62-10, 62-2, 62-6, 62-7, 62-8, 63-1, 81, 84"
721,Q6 041,Trường Nguyễn Đức Cảnh,Nhà chờ,Quận 6,Hồng Bàng,106.644003,10.754021,"09, 139, 145, 16, 62-1, 62-10, 62-2, 62-6, 62-7, 62-8, 63-1, 81, 84"
723,Q6 042,Chùa Nam Phổ Đà,Trụ dừng,Quận 6,Hồng Bàng,106.645955,10.753789,"09, 139, 145, 16, 62-1, 62-10, 62-2, 62-6, 62-7, 62-8, 63-1, 81, 84"
722,Q6 043,Lò Siêu,Trụ dừng,Quận 6,Hồng Bàng,106.647323,10.753647,"09, 139, 145, 16, 62-1, 62-10, 62-2, 62-6, 62-8, 63-1, 81, 84"
1113,QTD 077,Ngã tư Thủ Đức,Nhà chờ,Quận Thủ Đức,Xa Lộ Hà Nội,106.77299,10.84828,"10, 104, 150, 30, 52, 55, 60-3, 60-7, 67"
726,Q1 073,Đền Trần Hưng Đạo,Trụ dừng,Quận 1,Võ Thị Sáu,106.695238,10.791369,"10, 18, 91"
727,Q3 103,Trần Quốc Thảo,Trụ dừng,Quận 3,Võ Thị Sáu,106.686242,10.782294,"10, 30, 91"
728,Q6 024,CoopMart ,Trụ dừng,Quận 6,Hậu Giang,106.643198,10.749815,"10, 25, 61"
115,Q6 030,Mũi Tàu Phú Lâm,Trụ dừng,Quận 6,Hậu Giang,106.624686,10.745536,"10, 148, 25"
725,BX 46,Bến xe Miền Tây,Bến xe,Quận Bình Tân,Kinh Dương Vương,106.619438,10.739486,"10, 102, 139, 14, 148, 151, 32, 39, 41, 60-1, 91"
729,Q6 036,CoopMart,Trụ dừng,Quận 6,Hậu Giang,106.64283,10.74971,"10, 25, 61"
1397,Q10 031,Bệnh viện Nhi Đồng 1,Trụ dừng,Quận 10,Lý Thái Tổ,106.67038,10.767765,"10, 14, 27, 38, 69"
1909,Q3 020,Ngã 7 Lý Thái Tổ,Trụ dừng,Quận 3,Điện Biên Phủ,106.675224,10.768703,"10, 150, 91"
731,Q3 024,Cách Mạng tháng 8,Nhà chờ,Quận 3,Điện Biên Phủ,106.684145,10.777009,"10, 150, 30, 91"
730,QBTH 063,Cầu Điện Biên Phủ,Trụ dừng,Quận Bình Thạnh,Điện Biên Phủ,106.702518,10.795115,"10, 150, 45, 93"
732,BX 63,Bến xe Củ Chi,Bến xe,Huyện Củ Chi,Quốc lộ 22,106.482099,10.971617,"100, 107, 126, 13, 62-3, 70-1, 70-2, 74, 79, 87, 94"
734,HCC 018,Bến xe Củ Chi,Nhà chờ,Huyện Củ Chi,Quốc lộ 22,106.480347,10.972533,"100, 107, 70-1, 70-2, 79"
733,HCC 019,Bệnh viện Củ Chi,Trụ dừng,Huyện Củ Chi,Quốc lộ 22,106.475742,10.974756,"100, 107, 70-1, 70-2, 79"
738,HCC 020,Trạm xăng,Ô sơn,Huyện Củ Chi,Quốc lộ 22,106.473129,10.976133,"100, 107, 70-1, 70-2, 79"
735,HCC 021,Công ty phân bón Sinh hóa Củ Chi,Trụ dừng,Huyện Củ Chi,Quốc lộ 22,106.469455,10.978179,"100, 107, 70-1, 70-2"
7679,HCC 297,Quán cơm 5 Hoàng,Trụ dừng,Huyện Củ Chi,Quốc lộ 22,106.4643,10.981133,"100, 107"
741,HCC 022,Trạm xăng Phước Hiệp 1,Trụ dừng,Huyện Củ Chi,Quốc lộ 22,106.461232,10.98305,"100, 107, 70-1, 70-2"
736,HCC 023,Trạm y tế Nguyễn Thị Rành,Trụ dừng,Huyện Củ Chi,Quốc lộ 22,106.450378,10.991035,"100, 107, 70-1, 70-2"
743,HCC 024,Đối diện Trường Tiểu học Phước Hiệp,Nhà chờ,Huyện Củ Chi,Quốc lộ 22,106.447987,10.993424,"100, 107, 70-1, 70-2"
737,HCC 025,Cây xăng Phước Thạnh,Trụ dừng,Huyện Củ Chi,Quốc lộ 22,106.445058,10.996789,"100, 107, 70-1, 70-2"
745,HCC 026,UBND xã Phước Thạnh,Nhà chờ,Huyện Củ Chi,Quốc lộ 22,106.431969,11.00463,"100, 107, 70-1, 70-2"
739,QCCT028,Chợ Phước Thạnh,Trụ dừng,Huyện Củ Chi,Quốc lộ 22,106.428146,11.005767,"100, 107, 70-1, 70-2"
746,HCC 144,Chợ Phước Thạnh,Ô sơn,Huyện Củ Chi,Tỉnh lộ 7,106.426697,11.005048,100
7707,HCC 282,Trường THCS Phước Thạnh,Nhà chờ,Huyện Củ Chi,Tỉnh lộ 7,106.424856,11.004225,100
789,HCC 102,Trường Quang Trung,Trụ dừng,Huyện Củ Chi,Tỉnh lộ 7 Củ Chi,106.423553,11.0029,100
742,HCC 146,Cây xăng petrolimet 59,Trụ dừng,Huyện Củ Chi,Tỉnh lộ 7,106.422159,11.000014,100
748,HCC 147,Cổng chào Xã Thái Mỹ,Trụ dừng,Huyện Củ Chi,Tỉnh lộ 7,106.415817,10.993867,100
750,HCC 148,Hẻm 582,Trụ dừng,Huyện Củ Chi,Tỉnh lộ 7,106.413944,10.992703,100
744,HCC 149,Giáo xứ Mỹ Khánh,Trụ dừng,Huyện Củ Chi,Tỉnh lộ 7,106.409935,10.990917,100
752,HCC 150,Trường mầm non Thái Mỹ,Trụ dừng,Huyện Củ Chi,Tỉnh lộ 7,106.405235,10.991251,100
5789,HCC 1510,Trường Trung học phổ thông Nguyễn Văn Xơ,Trụ dừng,Huyện Củ Chi,Tỉnh lộ 7 ,106.402136,10.991364,100
7706,HCC 281,ĐD Trường Tiểu học Thái Mỹ,Nhà chờ,Huyện Củ Chi,Tỉnh lộ 7,106.39967,10.991307,100
754,HCC 152,Ủy Ban nhân dân Xã Thái Mỹ,Trụ dừng,Huyện Củ Chi,Tỉnh lộ 7,106.398463,10.991328,100
756,HCC 153,Ấp Bình Thượng 1,Trụ dừng,Huyện Củ Chi,Tỉnh lộ 7,106.393857,10.991302,100
747,HCC 154,Trương Thị Kiện,Trụ dừng,Huyện Củ Chi,Tỉnh lộ 7,106.390312,10.991721,100
749,HCC 155,Ngã 3 Ông Cống,Trụ dừng,Huyện Củ Chi,Tỉnh lộ 7 ,106.385681,10.992471,100
758,HCC 156,đường 687,Trụ dừng,Huyện Củ Chi,Tỉnh lộ 7,106.379446,10.99353,100
751,HCC 157,Trương Thị Kiện,Trụ dừng,Huyện Củ Chi,Tỉnh lộ 7,106.37443,10.993877,100
760,HCC 158,Tỉnh lộ 6,Trụ dừng,Huyện Củ Chi,Tỉnh lộ 7,106.372118,10.99363,100
771,BX 100,Cầu Tân Thái,Bến xe,Huyện Củ Chi,Tỉnh lộ 7,106.36434,10.983213,100
5777,HCC 089,Tỉnh lộ 6,Trụ dừng,Huyện Củ Chi,Tỉnh lộ 7,106.372075,10.993435,100
772,HCC 090,Trương Thị Kiện,Trụ dừng,Huyện Củ Chi,Tỉnh lộ 7,106.375471,10.993703,100
774,HCC 091,đường 687,Trụ dừng,Huyện Củ Chi,Tỉnh lộ 7,106.379929,10.993266,100
773,HCC 092,Ngã 3 Ông Cống,Trụ dừng,Huyện Củ Chi,Tỉnh lộ 7,106.3853,10.992433,100
5778,HCC 093,Trương Thị Kiện,Trụ dừng,Huyện Củ Chi,Tỉnh lộ 7,106.38952,10.991676,100
775,HCC 094,Ấp Bình Thượng 1,Trụ dừng,Huyện Củ Chi,Tỉnh lộ 7,106.393275,10.991186,100
777,HCC 095,Ủy Ban nhân dân Xã Thái Mỹ,Trụ dừng,Huyện Củ Chi,Tỉnh lộ 7,106.397889,10.991118,100
7705,HCC 280,Trường Tiểu học Thái Mỹ,Nhà chờ,Huyện Củ Chi,Tỉnh lộ 7,106.399986,10.991207,100
5779,HCC 096,Trường trung học phổ thông Nguyễn Văn Xơ,Trụ dừng,Huyện Củ Chi,Tỉnh lộ 7,106.402609,10.991139,100
778,HCC 097,Trường Mầm non Thái Mỹ,Trụ dừng,Huyện Củ Chi,Tỉnh lộ 7,106.405458,10.991097,100
780,HCC 098,Giáo xứ Mỹ Khánh,Trụ dừng,Huyện Củ Chi,Tỉnh lộ 7,106.411257,10.990949,100
779,HCC 099,Hẻm 582,Trụ dừng,Huyện Củ Chi,Tỉnh lộ 7,106.414518,10.992892,100
786,HCC 100,Cổng chào Xã Thái Mỹ,Trụ dừng,Huyện Củ Chi,Tỉnh lộ 7,106.416675,10.994119,100
781,HCC 101,Cây xăng petrolimet 59,Trụ dừng,Huyện Củ Chi,Tỉnh lộ 7,106.422581,11.000223,100
740,QCCT193,Trường THPT Quang Trung,Trụ dừng,Huyện Củ Chi,Tỉnh lộ 7 Củ Chi,106.423866,11.00323,100
782,HCC 103,Chợ Phước Thạnh,Trụ dừng,Huyện Củ Chi,Tỉnh lộ 7,106.426465,11.004793,100
790,HCC 028,Chợ Phước Thạnh,Nhà chờ,Huyện Củ Chi,Quốc lộ 22,106.428069,11.005567,"100, 107, 70-1, 70-2"
783,HCC 029,Ủy Ban nhân dân Xã Phước Thạnh,Trụ dừng,Huyện Củ Chi,Quốc lộ 22,106.431647,11.004504,"100, 107, 70-1"
784,HCC 030,ấp cây trôm,Trụ dừng,Huyện Củ Chi,Quốc lộ 22,106.44487,10.996617,"100, 107, 70-1, 70-2"
792,HCC 031,Trường Tiểu học Phước Hiệp,Nhà chờ,Huyện Củ Chi,Quốc lộ 22,106.448362,10.992698,"100, 107, 70-1, 70-2"
794,HCC 032,UBND xã Phước Hiệp,Nhà chờ,Huyện Củ Chi,Quốc lộ 22,106.451263,10.989567,"100, 107, 70-1, 70-2"
785,HCC 033,Cây xăng Tài Lộc 3,Nhà chờ,Huyện Củ Chi,Quốc lộ 22,106.461033,10.982855,"100, 107, 70-1, 70-2"
7680,HCC 298,Quán cơm 5 Hoàng,Trụ dừng,Huyện Củ Chi,Quốc lộ 22,106.463742,10.981049,"100, 107"
796,HCC 034,Công ty phân bón sinh hóa Củ Chi,Nhà chờ,Huyện Củ Chi,Quốc lộ 22,106.469632,10.977784,"100, 107, 70-1, 70-2"
787,HCC 035,Ngã 3 Nguyễn Thị Rành,Trụ dừng,Huyện Củ Chi,Quốc lộ 22,106.472717,10.976109,"100, 107, 70-1, 70-2, 79"
788,HCC 036,Bệnh viện Củ Chi,Trụ dừng,Huyện Củ Chi,Quốc lộ 22,106.477443,10.973655,"100, 107, 70-1, 79"
963,HCC 037,Bến xe Củ Chi,Trụ dừng,Huyện Củ Chi,Quốc lộ 22,106.48049,10.972091,"100, 107, 70-1, 70-2, 79"
278,BX84,Bến xe buýt Chợ Lớn - B,Bến xe,Quận 6,Lê Quang Sung,106.65107,10.751185,"101, 145, 23, 61, 62-2, 68, 84"
4418,Q6 072,Bãi Sậy,Trụ dừng,Quận 6,Phạm Đình Hổ,106.649303,10.748803,"101, 39"
753,Q6 013,Công viên Phạm Đình Hổ,Ô sơn,Quận 6,Bãi Sậy,106.647801,10.747702,101
755,Q6 014,Minh Phụng,Ô sơn,Quận 6,Bãi Sậy,106.644534,10.747206,101
7040,Q6 111,Bình Tiên,Trụ dừng,Quận 6,Văn Thân,106.642393,10.743718,101
7042,Q6 113,Bà Lài,Ô sơn,Quận 6,Văn Thân,106.636321,10.740371,101
757,Q6 078,Cầu Phạm Văn Chí,Trụ dừng,Quận 6,Phạm Văn Chí,106.635484,10.738521,101
4354,Q6 064,Phạm Văn Chí,Trụ dừng,Quận 6,Nguyễn Văn Luông,106.633564,10.739016,101
759,Q6 017,Metro Bình Phú,Trụ dừng,Quận 6,Đường Số 26,106.630994,10.741673,"101, 61"
762,Q6 018,Đường số 23,Trụ dừng,Quận 6,Đường Số 26,106.626015,10.741972,101
1589,Q6 004,Lý Chiêu Hoàng,Ô sơn,Quận 6,An Dương Vương,106.623548,10.740065,"101, 61"
7045,QBT 275,Đường 38,Trụ dừng,Quận Bình Tân,An Dương Vương,106.622009,10.738347,101
803,Q8 080,Đường Hoàng Ngân,Trụ dừng,Quận 8,An Dương Vương,106.619906,10.724322,101
7583,Q8 145,Trương Đình Hội,Ô sơn,Quận 8,An Dương Vương,106.619289,10.71971,101
770,Q8 143,Chợ Kiến Đức,Ô sơn,Quận 8,An Dương Vương,106.618924,10.715794,"101, 15"
7049,Q8 144,Nhựa Chợ Lớn,Ô sơn,Quận 8,An Dương Vương,106.618752,10.713564,"101, 15"
763,Q8 081,Bến Phú Định,Ô sơn,Quận 8,An Dương Vương,106.61864,10.71135,"101, 15"
1847,Q8 134,Chùa Viên Giác,Ô sơn,Quận 8,Hồ Học Lãm,106.616848,10.713359,"101, 15"
1849,QBT 036,Nhựa Long Thành,Trụ dừng,Quận Bình Tân,Hồ Học Lãm,106.613817,10.718234,"101, 15"
1848,QBT 037,Võ Văn Kiệt,Trụ dừng,Quận Bình Tân,Hồ Học Lãm,106.612229,10.72069,"101, 15"
4256,QBT 279,Cầu Nước Lên,Ô sơn,Quận Bình Tân,Võ Văn Kiệt,106.606146,10.719889,101
7030,HBC_1,Dương Đình Cúc,Ô sơn,Huyện Bình Chánh,Dương Đình Cúc,106.597397,10.705468,101
7031,HBC_2,Thiên Hoàng Long,Trụ dừng,Huyện Bình Chánh,Dương Đình Cúc,106.59516,10.703001,101
7032,HBC_3,Trạm Y tế Tân Kiên,Trụ dừng,Huyện Bình Chánh,Dương Đình Cúc,106.591431,10.70075,101
7033,HBC_4,Trường Tân Kiên,Trụ dừng,Huyện Bình Chánh,Dương Đình Cúc,106.587038,10.698231,101
7034,HBC_5,Cầu Chợ Đệm,Trụ dừng,Huyện Bình Chánh,Dương Đình Cúc,106.580933,10.695732,101
3788,HBC 415,Xóm Giữa,Ô sơn,Huyện Bình Chánh,Thế Lữ,106.579045,10.696902,101
3791,HBC 416,Ấp 5,Ô sơn,Huyện Bình Chánh,Thế Lữ,106.577581,10.699164,"101, 22"
3790,HBC 417,Đình Phục Đức,Ô sơn,Huyện Bình Chánh,Thế Lữ,106.575397,10.700497,"101, 22"
3793,HBC 419,Đường dẫn Cao tốc,Ô sơn,Huyện Bình Chánh,Thế Lữ,106.571792,10.702495,"101, 22"
7142,HBC 462,Bệnh viện Nhi Thành phố,Nhà chờ,Huyện Bình Chánh,Đường dẫn cao tốc,106.573026,10.708515,101
4761,BX_100,Tân Nhựt,Bến xe,Huyện Bình Chánh,Thế Lữ,106.564373,10.705737,101
7757,HBC 466,THCS Tân Nhựt,Nhà chờ,Huyện Bình Chánh,Thế Lữ,106.566986,10.705577,"101, 22"
2239,HBC 446,Ngã 3 Trường học,Ô sơn,Huyện Bình Chánh,Thế Lữ,106.568112,10.703923,"101, 22"
3723,HBC 447,Đường dẫn Cao tốc,Ô sơn,Huyện Bình Chánh,Thế Lữ,106.572044,10.702305,"101, 22"
3725,HBC 448,Đình Phục Đức,Ô sơn,Huyện Bình Chánh,Thế Lữ,106.575456,10.70036,"101, 22"
3727,HBC 449,Ấp 5,Ô sơn,Huyện Bình Chánh,Thế Lữ,106.577446,10.699169,"101, 22"
3728,HBC 450,Xóm Giữa,Ô sơn,Huyện Bình Chánh,Thế Lữ,106.578884,10.69696,101
7035,HBC_6,Cầu Chợ Đệm,Trụ dừng,Huyện Bình Chánh,Dương Đình Cúc,106.580526,10.6955,101
7036,HBC_7,Trường Tân Kiên,Trụ dừng,Huyện Bình Chánh,Dương Đình Cúc,106.586523,10.697888,101
7037,HBC_8,Trạm y tế Tân Kiên,Trụ dừng,Huyện Bình Chánh,Dương Đình Cúc,106.591737,10.700861,101
7038,HBC_9,Thiên Hoàng Long,Trụ dừng,Huyện Bình Chánh,Dương Đình Cúc,106.59517,10.702716,101
7039,HBC_10,Quốc lộ 1A,Trụ dừng,Huyện Bình Chánh,Dương Đình Cúc,106.597633,10.705547,"101, 62-8"
7050,QBT 280,Cầu Nước Lên,Ô sơn,Quận Bình Tân,Võ Văn Kiệt,106.606822,10.719552,101
1801,QBT 047,Khu dân cư Hương lộ 5,Ô sơn,Quận Bình Tân,Hồ Học Lãm,106.611877,10.72068,"101, 15"
1800,QBT 048,Nhựa Long Thành,Ô sơn,Quận Bình Tân,Hồ Học Lãm,106.613464,10.718161,"101, 15"
1803,Q8 133,Chùa Viên Giác,Ô sơn,Quận 8,Hồ Học Lãm,106.616989,10.712624,"101, 15"
805,Q8 075,Bến Phú Định,Ô sơn,Quận 8,An Dương Vương,106.618795,10.71144,"101, 15"
797,Q8 076,Nhựa Chợ Lớn,Trụ dừng,Quận 8,An Dương Vương,106.618924,10.713348,"101, 15"
807,Q8 077,Chợ Kiến Đức,Ô sơn,Quận 8,An Dương Vương,106.619074,10.715667,"101, 15"
801,Q8 079,Trương Đình Hội,Ô sơn,Quận 8,An Dương Vương,106.619503,10.719183,101
799,Q8 078,Đường Hoàng Ngân,Ô sơn,Quận 8,An Dương Vương,106.620083,10.723948,101
7044,Q6 115,Đường 38,Trụ dừng,Quận 6,An Dương Vương,106.622095,10.73811,101
806,Q6 001,Lý Chiêu Hoàng,Trụ dừng,Quận 6,An Dương Vương,106.623715,10.740239,"101, 61"
809,Q6 019,Đường số 23,Trụ dừng,Quận 6,Đường Số 26,106.626129,10.741862,101
811,Q6 020,Metro Bình Phú,Trụ dừng,Quận 6,Đường Số 26,106.63086,10.741578,"101, 61"
4353,Q6 069,Phạm Văn Chí,Trụ dừng,Quận 6,Nguyễn Văn Luông,106.633413,10.739275,101
1595,Q6 081,Cầu Phạm Văn Chí,Trụ dừng,Quận 6,Phạm Văn Chí,106.635447,10.738384,101
7043,Q6 114,Bà Lài,Ô sơn,Quận 6,Văn Thân,106.636246,10.740202,101
7041,Q6 112,Bình Tiên,Trụ dừng,Quận 6,Văn Thân,106.642415,10.743607,101
808,Q6 015,Minh Phụng,Ô sơn,Quận 6,Bãi Sậy,106.644244,10.747059,101
810,Q6 016,Công viên Phạm Đình Hổ,Ô sơn,Quận 6,Bãi Sậy,106.648686,10.747728,101
4275,Q1 161,Trạm Trung chuyển trên đường Hàm Nghi,Nhà chờ,Quận 1,Hàm Nghi,106.70101,10.77079,"102, 20"
7564,Q1 196,Bảo tàng Mỹ Thuật,Trụ dừng,Quận 1,Nguyễn Thái Bình,106.699669,10.769251,"102, 34, 38, 39, D4"
853,Q1 001,Calmette,Trụ dừng,Quận 1,Calmette,106.699219,10.767768,"102, 123, 124, 34, 38, 44"
856,Q4 014,Chợ Xóm Chiếu,Trụ dừng,Quận 4,Hoàng Diệu,106.706504,10.764703,"102, 31, 34"
855,Q4 027,Bưu Điện Quận 4,Trụ dừng,Quận 4,Nguyễn Tất Thành,106.70763,10.76385,"102, 20, 31, 34, 75"
857,Q4 028,Đại học Nguyễn Tất Thành,Nhà chờ,Quận 4,Nguyễn Tất Thành,106.70932,10.7618,"102, 20, 31, 34, 75"
858,Q4 029,Trường Nguyễn Trãi,Trụ dừng,Quận 4,Nguyễn Tất Thành,106.713359,10.759423,"102, 20, 31, 34, 75"
860,Q4 030,Cảng Sài Gòn,Trụ dừng,Quận 4,Nguyễn Tất Thành,106.715977,10.7579,"102, 20, 31, 34, 75"
859,Q7 080,Cầu Tân Thuận 2,Trụ dừng,Quận 7,Nguyễn Văn Linh,106.723927,10.752424,"102, 31, 34, 68, 75"
862,Q7 082,Cầu Tân Thuận 2,Trụ dừng,Quận 7,Nguyễn Văn Linh,106.724088,10.751697,"102, 31"
4125,Q7 081,Ủy ban Phường Tân Thuận Tây,Trụ dừng,Quận 7,Nguyễn Văn Linh,106.721728,10.747807,"102, 31"
866,Q7 084,Cầu Lý Phục Man,Trụ dừng,Quận 7,Nguyễn Văn Linh,106.721508,10.742521,"102, 31"
863,Q7 085,Nguyễn Thị Thập,Trụ dừng,Quận 7,Nguyễn Văn Linh,106.721444,10.739585,"102, 31"
869,Q7 088,Bệnh viện Việt Pháp,Trụ dừng,Quận 7,Nguyễn Văn Linh,106.718912,10.731063,"102, 34"
864,Q7 087,Nguyễn Lương Bằng,Trụ dừng,Quận 7,Nguyễn Văn Linh,106.712801,10.729419,"102, 34"
865,Q7 089,Hưng Vượng,Trụ dừng,Quận 7,Nguyễn Văn Linh,106.709567,10.72934,"102, 34"
872,Q7 090,Sky Garden,Trụ dừng,Quận 7,Nguyễn Văn Linh,106.7049,10.729234,"102, 123, 124, 34, 68"
2689,Q7 139,Lê Văn Lương,Trụ dừng,Quận 7,Nguyễn Văn Linh,106.699315,10.72905,"102, 34"
868,Q7 092,Đại học RMIT,Trụ dừng,Quận 7,Nguyễn Văn Linh,106.695061,10.728839,"102, 34"
873,HBC 001,Trung Sơn,Trụ dừng,Huyện Bình Chánh,Nguyễn Văn Linh,106.687117,10.728639,"102, 34"
870,HBC 002,Cầu Ông Bé,Trụ dừng,Huyện Bình Chánh,Nguyễn Văn Linh,106.683946,10.728575,"102, 34"
875,HBC 003,Phúc Minh,Trụ dừng,Huyện Bình Chánh,Nguyễn Văn Linh,106.679472,10.728486,"102, 34"
871,HBC 004,Phạm Hùng,Trụ dừng,Huyện Bình Chánh,Nguyễn Văn Linh,106.676537,10.7284,102
877,HBC 005,Cầu Xóm Củi,Trụ dừng,Huyện Bình Chánh,Nguyễn Văn Linh,106.667193,10.726741,102
874,HBC 006,Chùa Viên Minh,Trụ dừng,Huyện Bình Chánh,Nguyễn Văn Linh,106.660316,10.723442,102
876,HBC 007,Quốc lộ 50,Trụ dừng,Huyện Bình Chánh,Nguyễn Văn Linh,106.656861,10.720896,102
879,HBC 008,Sau Quốc lộ 50,Trụ dừng,Huyện Bình Chánh,Nguyễn Văn Linh,106.654415,10.718972,"102, 22, 45"
881,HBC 33,Khu đô thị Hạnh Phúc,Trụ dừng,Huyện Bình Chánh,Nguyễn Văn Linh,106.649158,10.714903,"102, 22, 45"
884,HBC 010,Cầu Bà Lớn,Trụ dừng,Huyện Bình Chánh,Nguyễn Văn Linh,106.645103,10.71174,"102, 22, 45"
878,HBC 011,Chung cư Conic,Trụ dừng,Huyện Bình Chánh,Nguyễn Văn Linh,106.64227,10.709506,"102, 22, 45"
880,HBC 012,Khu dân cư 13A,Trụ dừng,Huyện Bình Chánh,Nguyễn Văn Linh,106.639502,10.707397,"102, 22, 45"
882,HBC 013,Trịnh Quang Nghị,Trụ dừng,Huyện Bình Chánh,Nguyễn Văn Linh,106.634567,10.703602,"102, 22, 45"
886,HBC 014,Kim Hằng,Trụ dừng,Huyện Bình Chánh,Nguyễn Văn Linh,106.631713,10.701414,"102, 22"
887,HBC 015,Cầu sập,Trụ dừng,Huyện Bình Chánh,Nguyễn Văn Linh,106.627235,10.69925,"102, 22"
883,HBC 016,Cầu Cần Giuộc,Trụ dừng,Huyện Bình Chánh,Nguyễn Văn Linh,106.61828,10.696855,"102, 22"
885,HBC 017,Đường vào Chợ Bình Điền,Trụ dừng,Huyện Bình Chánh,Nguyễn Văn Linh,106.612183,10.695133,"102, 22"
889,HBC 452,Trạm thu phí Chợ Bình Điền,Ô sơn,Huyện Bình Chánh,Đường vào Chợ ĐM Bình Điền,106.609359,10.698405,"102, 22"
891,HBC 453,Chợ Bình Điền,Ô sơn,Huyện Bình Chánh,Đường vào Chợ ĐM Bình Điền,106.608372,10.701984,"102, 22"
893,HBC 451,Trạm thu phí Chợ Bình Điền,Ô sơn,Huyện Bình Chánh,Đường vào Chợ ĐM Bình Điền,106.609075,10.698547,"102, 22"
888,HBC 018,Khu dân cư Nguyễn Minh,Trụ dừng,Huyện Bình Chánh,Nguyễn Văn Linh,106.60856,10.694145,"102, 22"
892,HBC 019,Căn hộ Hoàng Quân,Trụ dừng,Huyện Bình Chánh,Nguyễn Văn Linh,106.605682,10.69335,"102, 22"
894,HBC 020,Ấp 2,Trụ dừng,Huyện Bình Chánh,Nguyễn Văn Linh,106.600937,10.692048,"102, 22"
895,HBC 021,Quốc lộ 1A,Trụ dừng,Huyện Bình Chánh,Nguyễn Văn Linh,106.596169,10.69075,"102, 22"
813,HBC 022,Nguyễn Văn Linh,Trụ dừng,Huyện Bình Chánh,Nguyễn Văn Linh,106.595943,10.689686,"102, 22"
812,HBC 023,đường Ấp 2,Trụ dừng,Huyện Bình Chánh,Nguyễn Văn Linh,106.602321,10.69152,"102, 22"
815,HBC 024,Đường vào Chợ Bình Điền,Trụ dừng,Huyện Bình Chánh,Nguyễn Văn Linh,106.610159,10.693745,"102, 22"
817,HBC 025,Trạm thu phí,Trụ dừng,Huyện Bình Chánh,Nguyễn Văn Linh,106.613388,10.694493,"102, 22"
814,HBC 026,Cầu Cần Giuộc,Trụ dừng,Huyện Bình Chánh,Nguyễn Văn Linh,106.620603,10.696591,"102, 22"
818,HBC 027,Cầu Sập,Trụ dừng,Huyện Bình Chánh,Nguyễn Văn Linh,106.626692,10.698183,"102, 22"
816,HBC 028,Kim Hằng,Trụ dừng,Huyện Bình Chánh,Nguyễn Văn Linh,106.631413,10.700144,"102, 22"
820,HBC 029,Trịnh Quang Nghị,Trụ dừng,Huyện Bình Chánh,Nguyễn Văn Linh,106.634218,10.702237,"102, 22"
819,HBC 030,Khu dân cư 13A,Trụ dừng,Huyện Bình Chánh,Nguyễn Văn Linh,106.637893,10.705109,"102, 22, 45"
822,HBC 031,Đại học Văn Hiến (HungHau Campus),Ô sơn,Huyện Bình Chánh,Nguyễn Văn Linh,106.643343,10.709337,"102, 22, 45"
821,HBC 032,Cầu Bà Lớn,Trụ dừng,Huyện Bình Chánh,Nguyễn Văn Linh,106.645961,10.711382,"102, 22, 45"
824,HBC 033,KHU ĐÔ THỊ HẠNH PHÚC,Trụ dừng,Huyện Bình Chánh,Nguyễn Văn Linh,106.648997,10.713791,"102, 22, 45"
823,HBC 034,Quốc lộ 50,Trụ dừng,Huyện Bình Chánh,Nguyễn Văn Linh,106.654356,10.717971,"102, 22, 45"
826,HBC 035,Qua Quốc lộ 50,Trụ dừng,Huyện Bình Chánh,Nguyễn Văn Linh,106.656303,10.719436,102
825,HBC 036,Chùa Viên Minh,Trụ dừng,Huyện Bình Chánh,Nguyễn Văn Linh,106.659973,10.722198,102
828,HBC 037,Cầu Xóm Củi,Trụ dừng,Huyện Bình Chánh,Nguyễn Văn Linh,106.666866,10.72574,102
830,HBC 038,Sân bóng mi ni,Trụ dừng,Huyện Bình Chánh,Nguyễn Văn Linh,106.673234,10.727321,102
827,HBC 039,Phạm Hùng,Trụ dừng,Huyện Bình Chánh,Nguyễn Văn Linh,106.67675,10.727517,102
832,HBC 040,Phúc Minh,Ô sơn,Huyện Bình Chánh,Nguyễn Văn Linh,106.680121,10.727574,"102, 34"
829,HBC 041,Cầu Ông Bé,Trụ dừng,Huyện Bình Chánh,Nguyễn Văn Linh,106.684177,10.727785,"102, 34"
831,HBC 042,Trung Sơn,Trụ dừng,Huyện Bình Chánh,Nguyễn Văn Linh,106.687416,10.7279,"102, 34"
833,Q7 093,Đại học RMIT,Trụ dừng,Quận 7,Nguyễn Văn Linh,106.695308,10.728011,"102, 34"
834,Q7 094,Lê Văn Lương,Trụ dừng,Quận 7,Nguyễn Văn Linh,106.699787,10.727985,"102, 34"
835,Q7 095,Phòng cháy chữa cháy Quận 7,Nhà chờ,Quận 7,Nguyễn Văn Linh,106.704031,10.728106,"102, 123, 124, 34, 68"
836,Q7 096,Nguyễn Đức Cảnh,Trụ dừng,Quận 7,Nguyễn Văn Linh,106.709341,10.728212,"102, 34"
837,Q7 097,Co.op mart Phú Mỹ Hưng,Nhà chờ,Quận 7,Nguyễn Văn Linh,106.711557,10.728275,"102, 34"
838,Q7 098,Cầu Thầy Tiêu,Nhà chờ,Quận 7,Nguyễn Văn Linh,106.714829,10.728375,"102, 34"
839,Q7 099,bệnh viện Việt Pháp,Trụ dừng,Quận 7,Nguyễn Văn Linh,106.719646,10.730309,"102, 34"
840,Q7 100,Cầu Đa Khoa,Trụ dừng,Quận 7,Nguyễn Văn Linh,106.721798,10.738937,"102, 31"
842,Q7 101,Cầu Lý Phục Man,Trụ dừng,Quận 7,Nguyễn Văn Linh,106.721862,10.742031,"102, 31"
841,Q7 102,Ủy ban phường Tân Thuận Tây,Trụ dừng,Quận 7,Nguyễn Văn Linh,106.721991,10.746975,"102, 31"
844,Q7 103,Cầu Tân Thuận 2,Trụ dừng,Quận 7,Nguyễn Văn Linh,106.724174,10.751307,"102, 31"
848,Q4 031,Cảng Sài Gòn,Nhà chờ,Quận 4,Nguyễn Tất Thành,106.7155,10.758443,"102, 20, 31, 34, 75"
847,Q4 032,Nhà thờ Thánh An Tôn,Nhà chờ,Quận 4,Nguyễn Tất Thành,106.713241,10.759771,"102, 20, 31, 34, 75"
850,Q4 033,Đại học Nguyễn Tất Thành,Nhà chờ,Quận 4,Nguyễn Tất Thành,106.710194,10.761557,"102, 20, 31, 34, 75"
849,Q4 034,Bưu Điện Quận 4,Ô sơn,Quận 4,Nguyễn Tất Thành,106.707941,10.763744,"102, 20, 31, 34, 75"
852,Q4 006,Chợ Xóm Chiếu,Trụ dừng,Quận 4,Hoàng Diệu,106.706471,10.764983,"102, 20, 31, 34, 75"
851,Q4 007,Đoàn Văn Bơ,Trụ dừng,Quận 4,Hoàng Diệu,106.704031,10.763744,"102, 20, 31, 34, 75"
7282,BX101,Bến xe buýt Chợ Lớn - A,Bến xe,Quận 6,Lê Quang Sung,106.652607,10.751259,"103, 16"
4774,Q6 063,Nguyễn Thị Nhỏ,Biển treo,Quận 6,Nguyễn Thị Nhỏ,106.650585,10.751802,"103, 23"
896,Q11 082,Trạm Trần Quý - Tạ Uyên,Trụ dừng,Quận 11,Tạ Uyên,106.653603,10.758002,"103, 23"
153,Q11 013,Tạ Uyên,Trụ dừng,Quận 11,Đường 3/2,106.653763,10.760371,"103, 14, 62"
154,Q11 014,Lê Đại Hành,Trụ dừng,Quận 11,Đường 3/2,106.656006,10.761562,"103, 14, 62"
155,Q11 015,Phú Thọ,Nhà chờ,Quận 11,Đường 3/2,106.657881,10.762574,"103, 14, 27"
900,Q10 059,Bệnh viện Trưng Vương,Nhà chờ,Quận 10,Tô Hiến Thành,106.658913,10.770922,"103, 38, 50, 59, 69"
898,Q10 058,Đại học Bách Khoa (cổng sau),Nhà chờ,Quận 10,Tô Hiến Thành,106.661057,10.773046,"103, 38, 50, 59, 69"
902,Q10 057,Ngân hàng Quân Đội,Trụ dừng,Quận 10,Tô Hiến Thành,106.663017,10.775549,"103, 38, 59, 69"
899,Q10 069,Thành Thái nối dài,Trụ dừng,Quận 10,Thành Thái nd,106.662285,10.77768,103
904,Q10 097,Trường THPT Nguyễn Du,Trụ dừng,Quận 10,Tam Đảo,106.662254,10.778545,103
901,Q10 094,Ngã tư Đồng Nai,Trụ dừng,Quận 10,Trường Sơn,106.661758,10.781157,103
905,Q10 095,Ngã tư Nguyễn Giản Thanh,Trụ dừng,Quận 10,Trường Sơn,106.664886,10.782587,103
903,Q10 096,Công viên Lê Thị Riêng,Trụ dừng,Quận 10,Trường Sơn,106.666237,10.785224,103
906,QTB 054,Bắc Hải,Trụ dừng,Quận Tân Bình,Cách Mạng Tháng Tám,106.663727,10.787486,"103, 30, 65"
907,QTB 055,Ngã ba Bành Văn Trân,Biển treo,Quận Tân Bình,Cách Mạng Tháng Tám,106.661453,10.788692,"103, 30, 65"
910,QTB 056,Ông Tạ,Biển treo,Quận Tân Bình,Cách Mạng Tháng Tám,106.659694,10.78963,"103, 30, 65"
909,QTB 057,Cư xá Tự Do,Biển treo,Quận Tân Bình,Cách Mạng Tháng Tám,106.656218,10.791448,"103, 30, 65"
908,QTB 058,Bệnh viện Thống Nhất,Nhà chờ,Quận Tân Bình,Cách Mạng Tháng Tám,106.653991,10.792649,"103, 13, 30, 65"
911,QTB 100,Quán Vườn Dừa,Trụ dừng,Quận Tân Bình,Phan Đình Giót,106.664909,10.803641,"103, 109, 148, 152, 50, 59, 60-7, 63-1, 72-1"
913,QTB 014,Sông Đáy,Nhà chờ,Quận Tân Bình,Trường Sơn,106.664673,10.806961,"103, 109, 152, 60-7, 63-1"
912,QTB 016,Parkson Trường Sơn,Nhà chờ,Quận Tân Bình,Trường Sơn,106.66494,10.80969,"103, 109, 152, 60-7, 63-1"
1945,BX 50,Sân bay Tân Sơn Nhất,Bến xe,Quận Tân Bình,Trường Sơn_QTB,106.66383,10.815592,"103, 109, 152, 72-1"
7807,QTB 162,Ga Quốc nội Sân bay Tân Sơn Nhất,Biển treo,Quận Tân Bình,Làn B - Ga Quốc nội,106.66281,10.813927,"103, 109, 152, 72-1"
993,QTB 154,Đoàn tiếp viên,Ô sơn,Quận Tân Bình,Hồng Hà,106.669146,10.813099,103
916,QTB 155,Ngã tư Bạch Đằng,Nhà chờ,Quận Tân Bình,Hồng Hà,106.67244,10.812968,103
4748,QTB 156,Ngã ba Kênh Nhật Bản - Hồng Hà,Nhà chờ,Quận Tân Bình,Hồng Hà,106.674371,10.813732,103
4749,QTB 157,Vòng xoay Nguyễn Thái Sơn,Nhà chờ,Quận Tân Bình,Hồng Hà,106.677616,10.814006,103
921,QGV 155 ,Siêu thị Văn Lang,Trụ dừng,Quận Gò Vấp,Quang Trung,106.679209,10.826846,"103, 18, 24, 55"
920,QGV 156,Công ty 32,Trụ dừng,Quận Gò Vấp,Quang Trung,106.675487,10.8281,"103, 18, 24, 55"
922,QGV 157,Nhà thờ Xóm Thuốc,Nhà chờ,Quận Gò Vấp,Quang Trung,106.672606,10.829186,"103, 18, 24, 55"
923,QGV 158,UBND Quận Gò Vấp,Trụ dừng,Quận Gò Vấp,Quang Trung,106.669232,10.83103,"103, 18, 24, 55"
924,QGV 159,VKSND Quận Gò Vấp,Trụ dừng,Quận Gò Vấp,Quang Trung,106.666791,10.832948,"103, 18, 24, 55"
4745,QGV 160,Chùa Huỳnh Kim,Trụ dừng,Quận Gò Vấp,Quang Trung,106.663368,10.835203,"103, 18, 24, 55"
925,QGV 161,City Mart,Trụ dừng,Quận Gò Vấp,Quang Trung,106.66104,10.835888,"103, 18, 24, 55"
929,QGV 151,Chợ Cây Trâm,Ô sơn,Quận Gò Vấp,Lê Văn Thọ,106.657811,10.838691,103
928,QGV 142,Ngã ba Cây Trâm,Trụ dừng,Quận Gò Vấp,Lê Văn Thọ,106.657167,10.843506,103
927,QGV 143,Câu lạc bộ Tenis,Trụ dừng,Quận Gò Vấp,Lê Văn Thọ,106.657076,10.846104,103
931,QGV 144,Nhà hàng Tư Trì,Trụ dừng,Quận Gò Vấp,Lê Văn Thọ,106.656636,10.849238,103
934,QGV 145,Ngã ba Lê Đức Thọ,Trụ dừng,Quận Gò Vấp,Lê Văn Thọ,106.656105,10.854096,103
2742,QGV 060,Nhà thờ Nữ Vương Hòa Bình,Trụ dừng,Quận Gò Vấp,Lê Đức Thọ,106.654528,10.856419,"103, 36"
932,Q12 105,Ngã tư Tân Thới Hiệp,Trụ dừng,Quận 12,Quốc lộ 1A,106.651199,10.861881,"103, 33, 60-1, 60-5, 61-3"
935,Q12 106,UBND Quận 12,Trụ dừng,Quận 12,Quốc lộ 1A,106.654053,10.861808,"103, 33, 60-1, 60-5, 61-3"
933,Q12 107,Bãi xe Tri Ân,Trụ dừng,Quận 12,Quốc lộ 1A,106.657127,10.861651,"103, 146, 33, 60-1, 60-5, 61-3"
936,Q12 108,Cầu Bến Cát,Trụ dừng,Quận 12,Quốc lộ 1A,106.662247,10.861335,"103, 146, 33, 60-1, 60-5, 61-3"
942,Q12 109,Gò Sao,Trụ dừng,Quận 12,Quốc lộ 1A,106.666458,10.861503,"103, 146, 33, 60-1, 60-5, 61-3"
937,Q12 110,Cây xăng Thạnh Xuân,Trụ dừng,Quận 12,Quốc lộ 1A,106.671882,10.861577,"103, 32, 33, 59, 60-1, 60-5, 61-3"
938,Q12 111,Cầu Cả Bốn,Trụ dừng,Quận 12,Quốc lộ 1A,106.674446,10.861619,"103, 32, 33, 59, 60-5, 61-3"
